# This LAS file was exported from StripLog 8.6.1, a product of WellSight Systems Inc..
# It is designed to pass the LAS Certify utility provided by the Canadian Well Logging Society.
# WellSight Systems does not warrant that this file will be readable by any other program, system, or process.
# If you encounter problems using this file, first contact the user who exported it, 
# and reference the appropriate LAS specification available at www.CWLS.org.
~VERSION INFORMATION
VERS      .           2.0                            : CWLS Log ASCII Standard Version
WRAP      .           NO                             : One Line per Depth Step
DLM       .           SPACE                          : Delimiter between data columns - one or more spaces
~WELL INFORMATION
STRT      .m          190                            : First Depth
STOP      .m          992                            : Last Depth
STEP      .m          0.2                            : Depth Increment
NULL      .           -999.25                        : NULL Value
COMP      .           Cardinal Energy Ltd.           : Well Operator
WELL      .           CARDINAL 102 HZ ALDSON 9-10-18-11 : Well Name
FLD       .                                          : Field
LOC       .           7-9-18-11W4                    : Location
SRVC      .           RPS Group                      : Service Company
DATE      .           2022-11-16 18:45 hrs           : Completion Date
CTRY      .                                          : Country
PROV      .                                          : Province       (required if CTRY = CA)
UWI       .           102/09-10-018-11W4/00          : Unique Well ID (required if CTRY = CA)
LIC       .           0505967                        : License        (required if CTRY = CA)
STAT      .                                          : State          (required if CTRY = US)
CNTY      .                                          : County         (required if CTRY = US)
API       .                                          : API Number     (required if CTRY = US)
# Surface Coords: 433.1 m North : 702.3 m West Boundary Section 18
LATI      .DEG                                       : Latitude  - see Surface Coords comment above
LONG      .DEG                                       : Longitude - see Surface Coords comment above
GDAT      .                                          : Geodetic Datum
EKB       .m          772.6                          : K.B. Elevation
EGL       .m          763.3                          : Ground Level Elevation
~PARAMETER
# There are no parameters
~CURVE
Depth     .m          960                            : Depth channel
Gamma     .API                                       : 
Total_Gas .units                                     : 
#Depth             Gamma       Total Gas
~ASCII
# ...
895.600            90.70          286.36
895.800            95.07          290.86
896.000            95.94          292.75
896.200            91.36          296.60
896.400            90.22          299.00
896.600            89.20          299.00
896.800            87.17          297.31
897.000            98.61          297.00
897.200            88.86          296.32
897.400            85.27          308.09
897.600            71.92          313.05
897.800            76.81          316.08
898.000            80.12          319.02
898.200            87.62          326.00
898.400            87.94          328.00
898.600            86.65          329.16
898.800            86.11          337.97
899.000            86.79          340.05
899.200            89.08          347.13
899.400            92.57          353.24
899.600            93.27          366.45
899.800            93.27          375.14
900.000            93.84          378.46
900.200            94.03          381.80
900.400            94.03          384.63
900.600           106.82          386.73
900.800           110.55          390.15
901.000           116.16          392.12
901.200           118.44          394.95
901.400           115.96          395.00
901.600           110.54          395.00
901.800           109.44          395.00
902.000           108.52          395.00
902.200           109.57          392.85
902.400           114.81          389.54
902.600           110.30          391.64
902.800           109.35          268.61
903.000           108.14          119.66
903.200            77.11          156.90
903.400            84.50          176.21
903.600           111.13          182.41
903.800           111.95          184.83
904.000           120.54          185.84
904.200           132.67          186.07
904.400           129.36          191.31
904.600           110.70          195.83
904.800           101.28          200.14
905.000            94.80          204.96
905.200            96.17          213.85
905.400            97.47          221.81
905.600           108.72          224.43
905.800           113.47          232.87
906.000           118.92          235.93
906.200           118.05          243.98
906.400           106.44          252.02
906.600            92.50          262.06
906.800            85.17          273.12
907.000            92.31          278.00
907.200           116.66          278.53
907.400           122.24          323.39
907.600           121.86          338.34
907.800           123.00          350.25
908.000           119.81          357.22
908.200           124.34          363.19
908.400           126.44          368.85
908.600           116.18          371.92
908.800           110.81          370.42
909.000           100.52          367.55
909.200            95.56          360.62
909.400           100.54          355.90
909.600           105.03          354.39
909.800           106.23          352.88
910.000           101.54          351.38
910.200           100.38          348.00
910.400            98.02          345.45
910.600            99.37          342.86
910.800           107.75          340.05
911.000           111.98          336.69
911.200           113.85          335.66
911.400           110.77          336.17
911.600           108.52          339.79
911.800           110.27          145.33
912.000           107.38           85.94
912.200           112.05          141.29
912.400           112.33          166.00
912.600           118.81          182.64
912.800           109.03          193.26
913.000           106.61          202.06
913.200            87.62          204.69
913.400            77.26          196.86
913.600            60.87          190.14
913.800            58.20          189.49
914.000            63.05          207.87
914.200            65.06          219.78
914.400            78.74          228.94
914.600            81.33          245.23
914.800            78.46          257.21
915.000            82.22          266.06
915.200            89.82          272.79
915.400            87.55          419.42
915.600            88.17          475.51
915.800            89.07          530.64
916.000            93.27          598.24
916.200            98.61          701.12
916.400           100.90          829.44
916.600           103.18          977.34
916.800           102.84         1116.66
917.000           106.45         1220.56
917.200           107.56         1285.98
917.400           114.86         1350.77
917.600           113.09         1375.64
917.800            91.94         1382.94
918.000            94.41         1376.16
918.200           103.94         1352.35
918.400           124.53         1323.18
918.600           142.45         1283.97
918.800           145.12         1228.24
919.000           140.85         1162.45
919.200           134.25         1106.35
919.400           114.05         1045.87
919.600           104.56          997.65
919.800           103.94          952.57
920.000           109.28          900.74
920.200           121.67          228.04
920.400           124.91          252.22
920.600           118.43          261.88
920.800           109.44          269.88
921.000           106.23          278.01
921.200           103.18          294.57
921.400            87.84          307.63
921.600            89.45          318.69
921.800            98.98          330.50
922.000           109.22          335.62
922.200           116.28          347.99
922.400           117.29          363.92
922.600           127.00          384.97
922.800           120.34          412.22
923.000           112.72          433.34
923.200           100.13          452.59
923.400           102.42          465.97
923.600           110.39          991.08
923.800           111.19          994.59
924.000            90.22          952.84
924.200            78.59          924.08
924.400            90.41          891.68
924.600           100.13          864.51
924.800           104.50          835.99
925.000           106.23          802.65
925.200           107.38          775.97
925.400           106.61          761.88
925.600           102.29          761.80
925.800            98.99          761.00
926.000            89.84          752.23
926.200            77.64          665.23
926.400            71.57          629.70
926.600            69.63          610.92
926.800            63.53          571.11
927.000            62.01          558.47
927.200            65.06          543.98
927.400            68.87          531.07
927.600            73.83          523.97
927.800            84.12          516.55
928.000            94.35          169.40
928.200            95.56          185.56
928.400            93.27          198.31
928.600            86.03          204.33
928.800            83.01          213.36
929.000            84.12          222.31
929.200            88.69          234.84
929.400            78.57          244.14
929.600            81.07          255.46
929.800            93.52          263.20
930.000            96.31          273.21
930.200            98.22          278.65
930.400            92.89          287.15
930.600            89.31          297.14
930.800            87.94          304.64
931.000            90.22          311.27
931.200            94.30          318.64
931.400            94.41          326.98
931.600            91.75          328.00
931.800            88.69          545.32
932.000            90.60         1155.78
932.200            94.98         1421.16
932.400           101.40         1625.58
932.600           103.94         1781.35
932.800           106.61         1873.49
933.000           108.90         1941.82
933.200           115.00         1962.98
933.400           121.35         1958.99
933.600           120.15         1945.28
933.800           111.95          727.02
934.000            91.75          682.97
934.200            77.07          648.39
934.400            54.20          608.23
934.600            45.42          582.28
