# This LAS file was exported from StripLog 8.6.1, a product of WellSight Systems Inc..
# It is designed to pass the LAS Certify utility provided by the Canadian Well Logging Society.
# WellSight Systems does not warrant that this file will be readable by any other program, system, or process.
# If you encounter problems using this file, first contact the user who exported it, 
# and reference the appropriate LAS specification available at www.CWLS.org.
~VERSION INFORMATION
VERS      .           2.0                            : CWLS Log ASCII Standard Version
WRAP      .           NO                             : One Line per Depth Step
DLM       .           SPACE                          : Delimiter between data columns - one or more spaces
~WELL INFORMATION
STRT      .m          190                            : First Depth
STOP      .m          992                            : Last Depth
STEP      .m          0.2                            : Depth Increment
NULL      .           -999.25                        : NULL Value
COMP      .           Cardinal Energy Ltd.           : Well Operator
WELL      .           CARDINAL 102 HZ ALDSON 9-10-18-11 : Well Name
FLD       .                                          : Field
LOC       .           7-9-18-11W4                    : Location
SRVC      .           RPS Group                      : Service Company
DATE      .           2022-11-16 18:45 hrs           : Completion Date
CTRY      .                                          : Country
PROV      .                                          : Province       (required if CTRY = CA)
UWI       .           102/09-10-018-11W4/00          : Unique Well ID (required if CTRY = CA)
LIC       .           0505967                        : License        (required if CTRY = CA)
STAT      .                                          : State          (required if CTRY = US)
CNTY      .                                          : County         (required if CTRY = US)
API       .                                          : API Number     (required if CTRY = US)
# Surface Coords: 433.1 m North : 702.3 m West Boundary Section 18
LATI      .DEG                                       : Latitude  - see Surface Coords comment above
LONG      .DEG                                       : Longitude - see Surface Coords comment above
GDAT      .                                          : Geodetic Datum
EKB       .m          772.6                          : K.B. Elevation
EGL       .m          763.3                          : Ground Level Elevation
~PARAMETER
# There are no parameters
~CURVE
Depth     .m          960                            : Depth channel
Gamma     .API                                       : 
Total_Gas .units                                     : 
#Depth             Gamma       Total Gas
~ASCII
# ...
778.000            90.55          265.39
778.200            92.12          244.09
778.400            91.13          219.88
778.600            88.69          196.71
778.800            83.41          178.11
779.000            86.97          168.44
779.200            86.54          168.49
779.400            87.17          180.41
779.600            89.26          206.39
779.800            92.03          112.55
780.000            92.61           65.57
780.200            96.17           83.16
780.400            96.13          402.46
780.600            98.66          483.00
780.800           101.28          480.44
781.000           103.48          475.59
781.200           104.37          466.80
781.400           105.65          459.42
781.600           106.23          450.27
781.800           106.23          441.01
782.000           109.50          431.78
782.200           113.41          423.55
782.400           114.24          415.49
782.600           115.14          408.85
782.800           115.91          398.99
783.000           116.81          392.14
783.200           116.91          387.19
783.400           115.92          382.62
783.600           114.56          376.70
783.800           113.72          371.56
784.000           114.75          366.73
784.200           115.24          362.27
784.400           112.47          357.50
784.600           112.33          353.79
784.800           112.07          349.83
785.000           111.27          345.15
785.200           109.75          338.57
785.400           107.58          329.83
785.600           106.89          321.60
785.800           106.26          311.05
786.000           103.08          301.75
786.200           103.18          294.54
786.400           106.23          290.00
786.600           107.86          283.44
786.800           109.64          276.66
787.000           110.67          238.11
787.200           111.74          228.35
787.400           109.50          229.81
787.600           106.99          231.68
787.800           111.68          239.02
788.000           112.64          242.76
788.200           110.89          242.04
788.400           109.66          235.99
788.600           110.39          230.56
788.800           111.57          220.14
789.000           114.54          210.62
789.200           114.77          206.64
789.400           110.49          202.12
789.600           109.28          215.32
789.800           110.42          231.00
790.000           117.39          228.64
790.200           118.23          169.84
790.400           119.05           86.05
790.600           117.47          110.11
790.800           111.91          141.59
791.000           109.96          162.83
791.200           109.36          173.35
791.400           109.76          181.92
791.600           108.37          189.36
791.800           107.09          195.28
792.000           107.53          199.26
792.200           106.51          207.97
792.400           104.87          218.38
792.600           104.46          223.52
792.800           105.63          221.23
793.000           106.23          209.43
793.200           105.18          193.94
793.400           104.32          184.66
793.600           105.93          219.69
793.800           105.77          443.36
794.000           100.81          462.98
794.200            99.37          484.58
794.400            99.64          497.08
794.600           103.84          509.28
794.800           107.06          519.04
795.000           108.52          523.76
795.200           108.55          525.00
795.400           108.90          525.47
795.600           112.05          525.49
795.800           111.24          525.00
796.000           109.66          523.82
796.200           106.74          521.73
796.400           105.07          518.98
796.600           104.40          516.57
796.800           105.01          512.97
797.000           105.03          508.80
797.200           109.33          504.63
797.400           114.67          499.58
797.600           118.50          493.45
797.800           119.78          488.17
798.000           120.74          479.94
798.200           121.75          472.70
798.400           120.42          466.17
798.600           117.96          456.66
798.800           117.29          446.94
799.000           118.30          440.04
799.200           119.00          429.37
799.400           120.53          417.19
799.600           122.16          409.57
799.800           123.00          396.46
800.000           122.46          378.75
800.200           118.77          361.04
800.400           114.96          343.32
800.600           113.34          325.60
800.800           115.91          250.70
801.000           118.35          219.40
801.200           117.31          233.03
801.400           118.94          241.52
801.600           116.74          246.39
801.800           111.65          247.00
802.000           113.67          246.03
802.200           123.77          240.76
802.400           124.34          230.33
802.600           120.05          222.15
802.800           118.13          219.61
803.000           112.33          233.12
803.200           100.43          248.70
803.400            87.80          267.91
803.600            82.94          279.06
803.800            80.63          284.49
804.000            79.93          289.33
804.200            75.14          293.23
804.400            63.71          295.34
804.600            56.97          290.88
804.800            60.07          284.26
805.000            73.04          280.45
805.200            77.26          280.00
805.400            74.21          280.97
805.600            72.92          277.92
805.800            76.33          274.75
806.000            76.75          271.71
806.200            78.96          268.58
806.400            82.79          259.86
806.600            81.97          247.80
806.800            81.07          236.45
807.000            82.52          224.18
807.200            84.88          215.02
807.400            86.49          213.67
807.600            88.38          216.23
807.800            96.17          224.41
808.000           102.10          242.66
808.200           111.57          271.75
808.400           108.32          300.97
808.600           102.87          410.51
808.800           100.19          376.45
809.000            97.76          363.78
809.200            97.08          355.05
809.400            97.34          343.84
809.600            97.72          335.57
809.800            99.37          327.11
810.000           100.58          316.75
810.200           100.25          309.71
810.400            99.75          302.48
810.600            98.13          294.51
810.800           101.63          288.21
811.000           105.12          282.92
811.200           105.47          278.30
811.400           105.47          273.33
811.600           106.78          268.03
811.800           104.89          263.59
812.000            95.13          260.27
812.200            91.68          253.21
812.400            90.33          247.88
812.600            90.54          243.30
812.800            90.75          234.97
813.000            90.96          228.38
813.200            79.22          215.41
813.400            80.67          180.66
813.600            81.07          170.84
813.800            83.72          175.02
814.000            83.36          180.94
814.200            86.41          183.00
814.400            88.43          180.73
814.600            88.81          180.84
814.800            87.42          181.00
815.000            86.24          178.95
815.200            82.43          174.85
815.400            82.90          185.87
815.600            87.68          204.80
815.800            88.31          158.65
816.000            88.69           43.30
816.200            90.22           65.70
816.400            91.41          101.85
816.600            91.36          129.48
816.800            91.10          160.13
817.000            95.81          175.56
