# This LAS file was exported from StripLog 8.6.1, a product of WellSight Systems Inc..
# It is designed to pass the LAS Certify utility provided by the Canadian Well Logging Society.
# WellSight Systems does not warrant that this file will be readable by any other program, system, or process.
# If you encounter problems using this file, first contact the user who exported it, 
# and reference the appropriate LAS specification available at www.CWLS.org.
~VERSION INFORMATION
VERS      .           2.0                            : CWLS Log ASCII Standard Version
WRAP      .           NO                             : One Line per Depth Step
DLM       .           SPACE                          : Delimiter between data columns - one or more spaces
~WELL INFORMATION
STRT      .m          190                            : First Depth
STOP      .m          992                            : Last Depth
STEP      .m          0.2                            : Depth Increment
NULL      .           -999.25                        : NULL Value
COMP      .           Cardinal Energy Ltd.           : Well Operator
WELL      .           CARDINAL 102 HZ ALDSON 9-10-18-11 : Well Name
FLD       .                                          : Field
LOC       .           7-9-18-11W4                    : Location
SRVC      .           RPS Group                      : Service Company
DATE      .           2022-11-16 18:45 hrs           : Completion Date
CTRY      .                                          : Country
PROV      .                                          : Province       (required if CTRY = CA)
UWI       .           102/09-10-018-11W4/00          : Unique Well ID (required if CTRY = CA)
LIC       .           0505967                        : License        (required if CTRY = CA)
STAT      .                                          : State          (required if CTRY = US)
CNTY      .                                          : County         (required if CTRY = US)
API       .                                          : API Number     (required if CTRY = US)
# Surface Coords: 433.1 m North : 702.3 m West Boundary Section 18
LATI      .DEG                                       : Latitude  - see Surface Coords comment above
LONG      .DEG                                       : Longitude - see Surface Coords comment above
GDAT      .                                          : Geodetic Datum
EKB       .m          772.6                          : K.B. Elevation
EGL       .m          763.3                          : Ground Level Elevation
~PARAMETER
# There are no parameters
~CURVE
Depth     .m          960                            : Depth channel
Gamma     .API                                       : 
Total_Gas .units                                     : 
#Depth             Gamma       Total Gas
~ASCII
# ...
621.200           136.83         1130.30
621.400           141.12         1122.60
621.600           141.76         1108.10
621.800           142.22         1087.90
622.000           142.52         1057.40
622.200           142.71         1030.30
622.400           140.83          993.50
622.600           142.26          957.00
622.800           142.83          908.80
623.000           142.45          875.40
623.200           140.95          828.50
623.400           139.93          773.70
623.600           140.07          722.80
623.800           140.40          690.00
624.000           136.35          650.60
624.200           137.89          617.00
624.400           139.78          587.80
624.600           137.65          566.20
624.800           137.02          547.90
625.000           134.12          527.10
625.200           132.16          508.60
625.400           132.16          494.00
625.600           133.79          474.30
625.800           134.73          457.00
626.000           135.10          483.60
626.200           135.97          892.90
626.400           134.95          964.20
626.600           136.95          969.40
626.800           135.55         1002.00
627.000           136.09         1021.80
627.200           137.03         1039.40
627.400           138.00         1054.00
627.600           138.74         1073.90
627.800           138.42         1093.20
628.000           138.80         1115.10
628.200           137.37         1136.00
628.400           135.46         1155.10
628.600           133.37         1166.00
628.800           132.94         1175.90
629.000           134.20         1185.80
629.200           133.68         1203.10
629.400           132.41         1214.60
629.600           132.16         1230.70
629.800           133.93         1246.90
630.000           137.09         1255.50
630.200           140.10         1260.50
630.400           139.66         1265.60
630.600           138.83         1272.00
630.800           139.20         1282.10
631.000           140.18         1293.00
631.200           134.88         1302.80
631.400           134.44         1310.70
631.600           133.17         1317.10
631.800           131.24         1317.90
632.000           130.90         1316.70
632.200           131.31         1313.00
632.400           135.46         1302.70
632.600           137.20         1291.00
632.800           139.07         1291.20
633.000           140.54         1292.80
633.200           139.78         1289.60
633.400           140.12         1275.30
633.600           141.35         1258.80
633.800           142.26         1247.10
634.000           152.65         1237.40
634.200           155.41         1220.40
634.400           153.60         1195.40
634.600           150.85         1179.70
634.800           143.15         1167.30
635.000           137.59         1160.90
635.200           135.97         1160.00
635.400           135.21         1159.90
635.600           136.35         1158.10
635.800           137.61         1148.20
636.000           136.97         1129.00
636.200           137.29         1099.40
636.400           139.78         1072.80
636.600           141.62         1041.20
636.800           142.19         1012.10
637.000           142.57          973.40
637.200           138.73          937.70
637.400           133.93          904.00
637.600           129.03          863.60
637.800           128.25          820.40
638.000           129.11          784.60
638.200           130.82          750.80
638.400           131.74          718.70
638.600           130.32          686.70
638.800           126.99          664.00
639.000           125.29          648.00
639.200           123.15          671.90
639.400           122.46          733.50
639.600           124.91          817.90
639.800           130.97          899.60
640.000           138.30          969.40
640.200           140.17          743.30
640.400           130.39          784.20
640.600           117.62          804.10
640.800           110.42          804.60
641.000            99.84          800.40
641.200            95.07          795.60
641.400            92.88          802.70
641.600            87.12          820.30
641.800            83.45          842.40
642.000            84.27          855.80
642.200            92.78          864.10
642.400           105.50          876.10
642.600           118.16          896.40
642.800           126.76          909.70
643.000           134.13          916.60
643.200           142.40          922.30
643.400           152.49          925.10
643.600           161.57          925.80
643.800           169.36          923.20
644.000           180.38          915.10
644.200           199.03          905.70
644.400           212.60          893.30
644.600           220.17          885.40
644.800           214.00          870.00
645.000           200.78          859.60
645.200           153.87          846.20
645.400           125.67          838.60
645.600           103.62          834.80
645.800           106.85          832.10
646.000           110.24          823.30
646.200           111.95          816.90
646.400           119.67          815.90
646.600           124.71          813.90
646.800           125.12          802.80
647.000           123.83          791.20
647.200           122.88          783.50
647.400           128.16          778.40
647.600           132.83          773.10
647.800           136.41          774.60
648.000           139.38          780.70
648.200           136.84          787.60
648.400           134.06          793.60
648.600           129.23          800.00
648.800           125.58          810.10
649.000           121.81          820.30
649.200           119.07          822.80
649.400           119.71          820.30
649.600           120.72          813.10
649.800           121.99          803.80
650.000           122.41          791.00
650.200           122.69          770.70
650.400           122.88          747.90
650.600           127.04          726.30
650.800           131.06          699.60
651.000           135.88          675.20
651.200           139.86          648.00
651.400           143.11          627.90
651.600           143.98          607.50
651.800           142.41          591.30
652.000           138.17          564.80
652.200           133.68          542.20
652.400           127.84          515.30
652.600           128.35          497.80
652.800           131.02          476.30
653.000           132.72          460.50
653.200           132.45          455.80
653.400           128.60          475.10
653.600           124.15          666.90
653.800           118.43          686.40
654.000           118.25          710.50
654.200           121.67          734.50
654.400           124.40          749.30
654.600           125.13          763.10
654.800           125.70          783.90
655.000           126.06          802.90
655.200           123.43          822.10
655.400           120.34          843.90
655.600           120.50          872.40
655.800           120.47          896.90
656.000           119.96          925.10
656.200           122.83          945.80
656.400           126.18          963.30
656.600           130.04          976.40
656.800           131.01          990.00
657.000           131.09         1000.30
657.200           130.80         1013.10
657.400           130.63         1023.30
657.600           129.28         1026.30
657.800           129.45         1029.90
658.000           130.44         1039.30
658.200           131.34         1051.70
658.400           130.49         1058.00
658.600           129.68         1058.00
658.800           129.57         1057.90
659.000           128.83         1057.70
659.200           126.82         1064.70
659.400           127.75         1071.60
659.600           130.12         1077.80
659.800           132.41         1086.30
660.000           132.24         1100.10
660.200           134.82         1120.90
