# This LAS file was exported from StripLog 8.6.1, a product of WellSight Systems Inc..
# It is designed to pass the LAS Certify utility provided by the Canadian Well Logging Society.
# WellSight Systems does not warrant that this file will be readable by any other program, system, or process.
# If you encounter problems using this file, first contact the user who exported it, 
# and reference the appropriate LAS specification available at www.CWLS.org.
~VERSION INFORMATION
VERS      .           2.0                            : CWLS Log ASCII Standard Version
WRAP      .           NO                             : One Line per Depth Step
DLM       .           SPACE                          : Delimiter between data columns - one or more spaces
~WELL INFORMATION
STRT      .m          190                            : First Depth
STOP      .m          992                            : Last Depth
STEP      .m          0.2                            : Depth Increment
NULL      .           -999.25                        : NULL Value
COMP      .           Cardinal Energy Ltd.           : Well Operator
WELL      .           CARDINAL 102 HZ ALDSON 9-10-18-11 : Well Name
FLD       .                                          : Field
LOC       .           7-9-18-11W4                    : Location
SRVC      .           RPS Group                      : Service Company
DATE      .           2022-11-16 18:45 hrs           : Completion Date
CTRY      .                                          : Country
PROV      .                                          : Province       (required if CTRY = CA)
UWI       .           102/09-10-018-11W4/00          : Unique Well ID (required if CTRY = CA)
LIC       .           0505967                        : License        (required if CTRY = CA)
STAT      .                                          : State          (required if CTRY = US)
CNTY      .                                          : County         (required if CTRY = US)
API       .                                          : API Number     (required if CTRY = US)
# Surface Coords: 433.1 m North : 702.3 m West Boundary Section 18
LATI      .DEG                                       : Latitude  - see Surface Coords comment above
LONG      .DEG                                       : Longitude - see Surface Coords comment above
GDAT      .                                          : Geodetic Datum
EKB       .m          772.6                          : K.B. Elevation
EGL       .m          763.3                          : Ground Level Elevation
~PARAMETER
# There are no parameters
~CURVE
Depth     .m          960                            : Depth channel
Gamma     .API                                       : 
Total_Gas .units                                     : 
#Depth             Gamma       Total Gas
~ASCII
# ...
542.800           127.37          763.80
543.000           129.67          741.90
543.200           131.79          721.00
543.400           131.55          700.30
543.600           128.10          673.70
543.800           127.86          651.10
544.000           127.06          632.00
544.200           125.13          611.50
544.400           124.85          586.20
544.600           124.63          558.50
544.800           124.53          533.10
545.000           124.18          504.10
545.200           123.64          474.80
545.400           123.15          443.30
545.600           119.86          417.60
545.800           121.25          442.60
546.000           123.19          783.00
546.200           123.59          802.70
546.400           123.01          819.70
546.600           123.01          836.60
546.800           125.59          852.70
547.000           129.71          869.50
547.200           132.74          884.60
547.400           140.10          900.80
547.600           144.64          918.20
547.800           142.24          929.40
548.000           141.31          933.00
548.200           136.20          932.60
548.400           131.40          928.60
548.600           129.21          925.00
548.800           130.88          926.10
549.000           133.10          937.80
549.200           136.35          955.80
549.400           140.00          974.30
549.600           141.69          996.60
549.800           141.23         1014.30
550.000           140.68         1046.80
550.200           140.08         1072.80
550.400           139.78         1080.00
550.600           140.88         1079.40
550.800           142.51         1073.10
551.000           139.96         1063.40
551.200           139.78         1048.10
551.400           138.82         1038.90
551.600           137.32         1028.10
551.800           135.80         1018.80
552.000           135.52         1007.30
552.200           135.34         1000.50
552.400           135.00          995.60
552.600           134.76          991.40
552.800           134.57          985.50
553.000           135.43          980.50
553.200           135.11          975.60
553.400           135.27          970.60
553.600           136.16          956.30
553.800           146.92          938.20
554.000           150.73          909.80
554.200           151.03          877.40
554.400           148.07          841.40
554.600           140.45          805.60
554.800           132.06          772.10
555.000           123.86          742.30
555.200           116.76          706.60
555.400           117.24          682.00
555.600           120.40          651.70
555.800           123.10          618.50
556.000           126.31          583.70
556.200           128.53          551.60
556.400           129.38          529.40
556.600           132.31          523.80
556.800           134.44          522.30
557.000           133.58          524.80
557.200           133.05          523.00
557.400           132.25          523.00
557.600           132.16          522.50
557.800           132.74          515.70
558.000           134.78          492.50
558.200           133.48          467.20
558.400           133.49          439.20
558.600           134.61          413.20
558.800           134.44          405.40
559.000           134.44          399.20
559.200           128.52          422.20
559.400           127.13          696.90
559.600           127.58          724.70
559.800           127.77          741.10
560.000           128.30          751.90
560.200           129.49          760.70
560.400           132.42          768.30
560.600           133.73          781.10
560.800           135.42          792.80
561.000           139.97          810.80
561.200           138.76          828.00
561.400           136.62          838.60
561.600           135.59          854.90
561.800           129.95          873.90
562.000           128.36          892.00
562.200           129.30          902.60
562.400           128.60          918.10
562.600           129.20          929.40
562.800           130.06          943.20
563.000           127.20          955.10
563.200           126.63          966.10
563.400           127.58          976.60
563.600           130.19          982.70
563.800           130.76          989.50
564.000           129.87          994.00
564.200           129.87          993.40
564.400           129.29          987.20
564.600           128.73          979.00
564.800           131.00          969.60
565.000           133.05          965.70
565.200           132.52          963.10
565.400           131.44          964.20
565.600           131.39          966.00
565.800           130.15          966.00
566.000           128.72          965.80
566.200           127.20          963.50
566.400           128.16          958.40
566.600           132.09          951.70
566.800           135.43          938.60
567.000           136.33          924.90
567.200           137.72          914.40
567.400           138.92          908.40
567.600           138.64          902.10
567.800           138.57          893.00
568.000           138.89          883.00
568.200           138.00          872.90
568.400           136.93          861.50
568.600           136.16          846.30
568.800           135.56          829.20
569.000           134.89          810.50
569.200           134.44          785.40
569.400           133.32          759.60
569.600           132.15          735.70
569.800           130.05          713.00
570.000           128.82          692.70
570.200           128.34          670.20
570.400           128.34          652.50
570.600           128.34          637.40
570.800           128.73          621.80
571.000           131.93          610.00
571.200           134.31          600.20
571.400           134.31          591.70
571.600           134.50          578.50
571.800           135.90          562.80
572.000           135.97          540.40
572.200           135.97          515.40
572.400           137.49          514.20
572.600           131.50          634.10
572.800           128.45          645.30
573.000           127.96          658.30
573.200           130.12          671.40
573.400           131.80          685.00
573.600           132.43          695.10
573.800           132.79          706.00
574.000           131.51          716.20
574.200           129.39          727.70
574.400           129.77          734.50
574.600           130.63          739.60
574.800           133.53          745.50
575.000           135.70          750.40
575.200           133.68          754.40
575.400           130.84          759.20
575.600           124.70          771.60
575.800           119.63          787.30
576.000           120.06          799.60
576.200           122.03          805.80
576.400           127.98          814.20
576.600           130.15          825.80
576.800           132.19          833.20
577.000           135.25          835.00
577.200           134.80          834.70
577.400           133.63          831.40
577.600           133.27          825.60
577.800           132.61          821.50
578.000           127.87          816.40
578.200           127.58          810.70
578.400           127.89          807.90
578.600           128.21          807.00
578.800           132.11          807.00
579.000           133.40          806.90
579.200           133.10          805.80
579.400           132.59          804.00
579.600           132.68          803.70
579.800           129.35          800.00
580.000           132.73          790.10
580.200           135.21          780.80
580.400           135.21          769.60
580.600           134.81          765.70
580.800           134.44          762.80
581.000           134.44          760.90
581.200           132.45          760.00
581.400           128.17          759.60
581.600           125.29          755.30
581.800           121.63          747.80
