# This LAS file was exported from StripLog 8.6.1, a product of WellSight Systems Inc..
# It is designed to pass the LAS Certify utility provided by the Canadian Well Logging Society.
# WellSight Systems does not warrant that this file will be readable by any other program, system, or process.
# If you encounter problems using this file, first contact the user who exported it, 
# and reference the appropriate LAS specification available at www.CWLS.org.
~VERSION INFORMATION
VERS      .           2.0                            : CWLS Log ASCII Standard Version
WRAP      .           NO                             : One Line per Depth Step
DLM       .           SPACE                          : Delimiter between data columns - one or more spaces
~WELL INFORMATION
STRT      .m          190                            : First Depth
STOP      .m          992                            : Last Depth
STEP      .m          0.2                            : Depth Increment
NULL      .           -999.25                        : NULL Value
COMP      .           Cardinal Energy Ltd.           : Well Operator
WELL      .           CARDINAL 102 HZ ALDSON 9-10-18-11 : Well Name
FLD       .                                          : Field
LOC       .           7-9-18-11W4                    : Location
SRVC      .           RPS Group                      : Service Company
DATE      .           2022-11-16 18:45 hrs           : Completion Date
CTRY      .                                          : Country
PROV      .                                          : Province       (required if CTRY = CA)
UWI       .           102/09-10-018-11W4/00          : Unique Well ID (required if CTRY = CA)
LIC       .           0505967                        : License        (required if CTRY = CA)
STAT      .                                          : State          (required if CTRY = US)
CNTY      .                                          : County         (required if CTRY = US)
API       .                                          : API Number     (required if CTRY = US)
# Surface Coords: 433.1 m North : 702.3 m West Boundary Section 18
LATI      .DEG                                       : Latitude  - see Surface Coords comment above
LONG      .DEG                                       : Longitude - see Surface Coords comment above
GDAT      .                                          : Geodetic Datum
EKB       .m          772.6                          : K.B. Elevation
EGL       .m          763.3                          : Ground Level Elevation
~PARAMETER
# There are no parameters
~CURVE
Depth     .m          960                            : Depth channel
Gamma     .API                                       : 
Total_Gas .units                                     : 
#Depth             Gamma       Total Gas
~ASCII
# ...
738.800           130.14          827.96
739.000           132.92          840.76
739.200           135.34          852.84
739.400           135.62          864.26
739.600           134.91          876.00
739.800           135.36          888.08
740.000           136.37          899.49
740.200           135.02          907.81
740.400           130.83          913.47
740.600           126.08          915.70
740.800           126.31          916.71
741.000           126.50          917.00
741.200           126.68          915.56
741.400           126.33          910.63
741.600           123.89          901.66
741.800           124.15          886.40
742.000           125.59          871.53
742.200           126.06          855.18
742.400           126.39          838.82
742.600           127.47          817.34
742.800           127.39          795.73
743.000           127.15          768.34
743.200           127.65          737.57
743.400           127.94          711.13
743.600           128.19          681.96
743.800           128.72          654.99
744.000           129.82          626.37
744.200           128.98          607.85
744.400           125.24          591.75
744.600           123.38          577.31
744.800           121.97          565.74
745.000           120.86          553.82
745.200           120.26          536.61
745.400           119.48          526.24
745.600           117.78          253.11
745.800           118.42          205.87
746.000           119.21          198.83
746.200           119.82          190.89
746.400           117.63          184.63
746.600           117.31          176.78
746.800           118.07          167.82
747.000           118.85          161.51
747.200           119.19          161.00
747.400           114.88          434.17
747.600           113.21          511.15
747.800           112.84          549.88
748.000           109.84          612.76
748.200           105.73          652.49
748.400           102.95          677.31
748.600           104.56          682.91
748.800           110.55          677.04
749.000           113.94          647.80
749.200           114.88          608.88
749.400           115.29          602.80
749.600           112.01          632.95
749.800           109.28          684.47
750.000           108.38          754.24
750.200           107.76          823.58
750.400           107.76          889.39
750.600           103.88          980.67
750.800           104.12         1092.44
751.000           106.14         1189.07
751.200           106.56         1266.29
751.400           104.09         1337.56
751.600           102.42         1395.61
751.800           102.42         1428.63
752.000           103.18         1421.85
752.200           102.10         1344.44
752.400           103.67         1311.15
752.600           108.01         1266.68
752.800           111.84         1226.23
753.000           110.26         1187.40
753.200           109.58         1152.09
753.400           109.85         1111.14
753.600           113.86         1076.72
753.800           113.86         1055.11
754.000           113.86         1026.68
754.200           111.68          993.25
754.400           112.22          966.96
754.600           111.64          941.31
754.800           112.28          919.36
755.000           111.36          899.77
755.200           110.35          876.56
755.400           109.79          854.96
755.600           105.82          833.09
755.800           105.85          807.19
756.000           106.89          780.21
756.200           106.99          760.97
756.400           110.32          738.30
756.600           112.33          714.61
756.800           114.24          690.78
757.000           114.62          670.25
757.200           114.62          651.20
757.400           114.62          629.00
757.600           113.76          609.17
757.800           111.02          584.48
758.000           109.28          560.32
758.200           109.28          539.40
758.400           115.80          516.31
758.600           117.67          497.18
758.800           117.88          483.99
759.000           121.94          468.64
759.200           125.37          453.63
759.400           128.34          441.32
759.600           126.89          429.98
759.800           125.86          417.41
760.000           123.47          403.88
760.200           124.48          392.64
760.400           123.15          380.59
760.600           122.25          406.28
760.800           125.43          388.52
761.000           125.98          357.70
761.200           124.91          342.00
761.400           124.39          332.35
761.600           123.51          322.75
761.800           125.64          317.77
762.000           126.47          316.24
762.200           124.48          310.53
762.400           117.60          302.60
762.600           113.86          297.72
762.800           102.22          293.65
763.000           108.68          289.57
763.200           115.89          289.88
763.400           119.82          308.79
763.600           117.92          342.06
763.800           114.15          393.49
764.000           119.36          435.05
764.200           126.31          487.45
764.400           125.29          518.67
764.600           121.55          544.15
764.800           119.96          563.81
765.000           115.71          594.79
765.200           114.07          636.33
765.400           118.80          705.77
765.600           119.96          787.38
765.800           122.56          854.91
766.000           125.57          876.00
766.200           128.01          874.25
766.400           115.84          855.74
766.600           100.89          810.44
766.800            93.15          795.68
767.000            95.56          773.90
767.200            93.27          746.39
767.400            90.51          718.00
767.600            89.90          695.30
767.800            89.65          671.55
768.000            90.15          644.79
768.200            94.03          614.25
768.400            94.79          587.19
768.600            99.57          564.67
768.800           101.56          542.47
769.000           102.80          518.10
769.200           106.12          495.82
769.400           106.23          476.08
769.600           107.19          457.43
769.800           109.52          433.52
770.000           109.66          408.56
770.200           107.33          392.17
770.400           105.07          378.55
770.600           103.37          359.50
770.800            99.56          340.91
771.000            97.72          327.26
771.200            91.74          316.05
771.400            87.64          306.80
771.600            85.25          301.99
771.800            84.27          300.31
772.000            83.36          301.41
772.200            83.36          301.27
772.400            84.12          301.00
772.600            86.82          301.00
772.800            86.90          301.00
773.000            86.47          292.98
773.200            86.77          279.51
773.400            87.07          260.21
773.600            87.63          239.83
773.800            86.69          222.96
774.000            85.09          271.18
774.200            86.01          277.00
774.400            88.10          273.26
774.600            91.39          275.86
774.800            92.51          282.88
775.000            94.80          289.02
775.200            97.67          291.17
775.400            99.13          295.00
775.600            98.18          295.60
775.800            94.29          301.77
776.000            91.75          307.16
776.200            92.89          307.81
776.400            95.98          307.22
776.600            99.44          307.76
776.800            97.69          306.73
777.000            95.73          305.40
777.200            88.33          303.01
777.400            84.50          298.84
777.600            89.10          291.11
777.800            97.08          279.98
