# This LAS file was exported from HorizontalLog 8.6.0, a product of WellSight Systems Inc..
# It is designed to pass the LAS Certify utility provided by the Canadian Well Logging Society.
# WellSight Systems does not warrant that this file will be readable by any other program, system, or process.
# If you encounter problems using this file, first contact the user who exported it, 
# and reference the appropriate LAS specification available at www.CWLS.org.
~VERSION INFORMATION
VERS      .           2.0                            : CWLS Log ASCII Standard Version
WRAP      .           NO                             : One Line per Depth Step
DLM       .           SPACE                          : Delimiter between data columns - one or more spaces
~WELL INFORMATION
STRT      .m          850                            : First Depth
STOP      .m          2821.8                         : Last Depth
STEP      .m          0.2                            : Depth Increment
NULL      .           -999.25                        : NULL Value
COMP      .           Spur Petroleum Ltd.            : Well Operator
WELL      .           SPL 9-24 HZ 104 MARTENH 12-20-74-25 Leg 3 : Well Name
FLD       .           MartenH                        : Field
LOC       .           Surface: 9-24-74-26W4          : Location
SRVC      .           RPS Energy Canada Ltd.         : Service Company
DATE      .           07/01/2023 11:21               : Completion Date
CTRY      .           Canada                         : Country
PROV      .           AB                             : Province       (required if CTRY = CA)
UWI       .           104/12-20-074-25W4/03          : Unique Well ID (required if CTRY = CA)
LIC       .           0505211                        : License        (required if CTRY = CA)
STAT      .                                          : State          (required if CTRY = US)
CNTY      .                                          : County         (required if CTRY = US)
API       .                                          : API Number     (required if CTRY = US)
# Surface Coords: 456.8m South and 187.5m West of Section Boundary
LATI      .DEG                                       : Latitude  - see Surface Coords comment above
LONG      .DEG                                       : Longitude - see Surface Coords comment above
GDAT      .                                          : Geodetic Datum
EKB       .m          767.13                         : K.B. Elevation
EGL       .m          762.9                          : Ground Level Elevation
~PARAMETER
# There are no parameters
~CURVE
Depth     .m          001                            : Depth channel
ROP       .min/m                                     : 
Gas       .units                                     : 
Gamma     .API                                       : 
#Depth               ROP             Gas           Gamma
~ASCII
# ...
2795.800            0.30          718.00           74.21
2796.000            0.30          719.00           73.19
2796.200            0.30          720.00           71.62
2796.400            0.30          723.00           69.96
2796.600            0.30          726.00           68.66
2796.800            0.30          732.00           65.85
2797.000            3.20          743.00           62.29
2797.200            1.40          498.00           66.69
2797.400            0.90          492.00           72.30
2797.600            0.60          488.00           74.01
2797.800            0.50          483.00           73.43
2798.000            0.40          478.00           70.90
2798.200            0.40          471.00           70.90
2798.400            0.30          470.00           70.90
2798.600            5.00          467.00           70.90
2798.800            1.80          237.00           70.91
2799.000            1.30          238.00           71.67
2799.200            1.50          241.00           72.06
2799.400            1.70          251.00           72.06
2799.600            1.50          264.00           70.49
2799.800            1.50          269.00           68.58
2800.000            1.40          268.00           68.93
2800.200            1.40          272.00           69.51
2800.400            1.60          276.00           69.90
2800.600            2.90          276.00           73.53
2800.800            3.00          269.00           74.39
2801.000            2.50          266.00           74.39
2801.200            2.30          273.00           74.39
2801.400            2.30          275.00           74.39
2801.600            1.20          278.00           73.67
2801.800            7.20          322.00           71.78
2802.000            2.00          327.00           70.09
2802.200            1.10          333.00           69.90
2802.400            0.70          338.00           70.78
2802.600            0.50          345.00           70.67
2802.800            0.40          350.00           69.96
2803.000            0.40          356.00           69.79
2803.200            0.30          359.00           70.34
2803.400            0.30          366.00           71.64
2803.600            0.30          371.00         -999.25
2803.800            0.30          377.00         -999.25
2804.000            0.30          383.00         -999.25
2804.200            0.30          388.00         -999.25
2804.400            0.30          393.00         -999.25
2804.600            0.30          397.00         -999.25
2804.800            0.30          403.00         -999.25
2805.000            0.30          408.00         -999.25
2805.200            0.30          411.00         -999.25
2805.400            0.30          414.00         -999.25
2805.600            0.30          419.00         -999.25
2805.800            0.30          424.00         -999.25
2806.000            0.30          432.00         -999.25
2806.200            0.30          436.00         -999.25
2806.400            0.30          439.00         -999.25
2806.600            0.30          447.00         -999.25
2806.800            0.30          451.00         -999.25
2807.000            0.30          453.00         -999.25
2807.200            0.30          461.00         -999.25
2807.400            0.30          466.00         -999.25
2807.600            0.30          469.00         -999.25
2807.800            0.30          476.00         -999.25
2808.000            0.30          481.00         -999.25
2808.200            0.30          488.00         -999.25
2808.400            0.30          494.00         -999.25
2808.600            0.30          498.00         -999.25
2808.800            0.30          503.00         -999.25
2809.000            0.30          507.00         -999.25
2809.200            0.30          511.00         -999.25
2809.400            0.30          517.00         -999.25
2809.600            0.30          519.00         -999.25
2809.800            0.30          522.00         -999.25
2810.000            6.30          538.00         -999.25
2810.200            2.50          525.00         -999.25
2810.400            1.10          526.00         -999.25
2810.600            0.70          527.00         -999.25
2810.800            0.50          530.00         -999.25
2811.000            0.40          532.00         -999.25
2811.200            0.40          534.00         -999.25
2811.400            0.30          537.00         -999.25
2811.600            0.30          538.00         -999.25
2811.800            0.30          538.00         -999.25
2812.000            0.30          538.00         -999.25
2812.200            0.30          537.00         -999.25
2812.400            0.30          537.00         -999.25
2812.600            0.30          537.00         -999.25
2812.800            0.30          538.00         -999.25
2813.000            0.30          539.00         -999.25
2813.200            0.30          542.00         -999.25
2813.400            0.30          544.00         -999.25
2813.600            0.30          545.00         -999.25
2813.800            0.30          545.00         -999.25
2814.000            0.30          549.00         -999.25
2814.200            0.30          552.00         -999.25
2814.400            0.30          555.00         -999.25
2814.600            0.30          566.00         -999.25
2814.800            0.30          571.00         -999.25
2815.000            0.30          576.00         -999.25
2815.200            0.30          588.00         -999.25
2815.400            0.30          620.00         -999.25
2815.600            0.40          630.00         -999.25
2815.800            1.00          639.00         -999.25
2816.000            0.70          646.00         -999.25
2816.200            0.60          653.00         -999.25
2816.400            0.50          657.00         -999.25
2816.600            0.40          661.00         -999.25
2816.800            0.40          663.00         -999.25
2817.000            0.40          664.00         -999.25
2817.200            0.40          665.00         -999.25
2817.400            0.30          667.00         -999.25
2817.600            0.30          667.00         -999.25
2817.800            0.30          667.00         -999.25
2818.000            0.30          666.00         -999.25
2818.200            0.30          667.00         -999.25
2818.400            0.30          666.00         -999.25
2818.600            0.30          663.00         -999.25
2818.800            0.30          658.00         -999.25
2819.000            0.30          651.00         -999.25
2819.200            0.30          644.00         -999.25
2819.400            0.30          640.00         -999.25
2819.600            0.30          633.00         -999.25
2819.800            0.30          631.00         -999.25
2820.000            0.30          624.00         -999.25
2820.200            0.30          618.00         -999.25
2820.400            0.30          612.00         -999.25
2820.600            0.30          603.00         -999.25
2820.800            0.30          593.00         -999.25
2821.000            0.30          589.00         -999.25
2821.200            0.30          580.00         -999.25
2821.400            0.30          572.00         -999.25
2821.600            0.30          569.00         -999.25
2821.800            0.30          563.00         -999.25
