# This LAS file was exported from StripLog 8.6.1, a product of WellSight Systems Inc..
# It is designed to pass the LAS Certify utility provided by the Canadian Well Logging Society.
# WellSight Systems does not warrant that this file will be readable by any other program, system, or process.
# If you encounter problems using this file, first contact the user who exported it, 
# and reference the appropriate LAS specification available at www.CWLS.org.
~VERSION INFORMATION
VERS      .           2.0                            : CWLS Log ASCII Standard Version
WRAP      .           NO                             : One Line per Depth Step
DLM       .           SPACE                          : Delimiter between data columns - one or more spaces
~WELL INFORMATION
STRT      .m          190                            : First Depth
STOP      .m          992                            : Last Depth
STEP      .m          0.2                            : Depth Increment
NULL      .           -999.25                        : NULL Value
COMP      .           Cardinal Energy Ltd.           : Well Operator
WELL      .           CARDINAL 102 HZ ALDSON 9-10-18-11 : Well Name
FLD       .                                          : Field
LOC       .           7-9-18-11W4                    : Location
SRVC      .           RPS Group                      : Service Company
DATE      .           2022-11-16 18:45 hrs           : Completion Date
CTRY      .                                          : Country
PROV      .                                          : Province       (required if CTRY = CA)
UWI       .           102/09-10-018-11W4/00          : Unique Well ID (required if CTRY = CA)
LIC       .           0505967                        : License        (required if CTRY = CA)
STAT      .                                          : State          (required if CTRY = US)
CNTY      .                                          : County         (required if CTRY = US)
API       .                                          : API Number     (required if CTRY = US)
# Surface Coords: 433.1 m North : 702.3 m West Boundary Section 18
LATI      .DEG                                       : Latitude  - see Surface Coords comment above
LONG      .DEG                                       : Longitude - see Surface Coords comment above
GDAT      .                                          : Geodetic Datum
EKB       .m          772.6                          : K.B. Elevation
EGL       .m          763.3                          : Ground Level Elevation
~PARAMETER
# There are no parameters
~CURVE
Depth     .m          960                            : Depth channel
Gamma     .API                                       : 
Total_Gas .units                                     : 
#Depth             Gamma       Total Gas
~ASCII
# ...
699.600           138.70         1878.00
699.800           138.26         1877.76
700.000           138.26         1875.64
700.200           140.76         1873.37
700.400           145.37         1876.86
700.600           148.43         1883.12
700.800           146.81         1883.50
701.000           143.82         1878.25
701.200           140.42         1862.73
701.400           137.75         1837.47
701.600           123.77         1818.22
701.800           124.04         1804.59
702.000           129.66         1793.58
702.200           140.76         1780.89
702.400           159.74         1757.92
702.600           171.20         1738.50
702.800           182.93         1695.16
703.000           184.17         1639.41
703.200           183.33         1561.75
703.400           175.19         1495.42
703.600           163.29         1403.77
703.800           160.48         1328.53
704.000           163.99         1260.38
704.200           162.73         1204.34
704.400           164.83         1149.67
704.600           171.42         1102.12
704.800           180.14         1048.27
705.000           182.79         1012.01
705.200           184.89          958.32
705.400           192.22          886.64
705.600           190.52          841.04
705.800           188.96          792.72
706.000           193.00          746.82
706.200           195.44          692.37
706.400           195.44          652.62
706.600           195.12          609.46
706.800           193.00          569.97
707.000           189.32          523.70
707.200           184.51          489.15
707.400           169.08          481.87
707.600           162.23          539.95
707.800           175.15          389.01
708.000           188.71          405.85
708.200           190.64          401.93
708.400           188.72          383.61
708.600           191.44          374.12
708.800           193.38          361.00
709.000           194.68          339.42
709.200           208.54          302.76
709.400           178.52          260.94
709.600           144.25          240.00
709.800           121.63          249.42
710.000           122.10          311.67
710.200           122.46          395.43
710.400           118.05          497.57
710.600           126.06          747.74
710.800           124.88          762.04
711.000           125.30          767.17
711.200           128.09          768.00
711.400           136.19          768.00
711.600           147.83          768.18
711.800           157.35          769.18
712.000           164.37          769.64
712.200           178.23          767.63
712.400           177.30          765.45
712.600           169.74          762.26
712.800           161.75          758.81
713.000           150.03          757.62
713.200           135.97          756.19
713.400           126.79          757.00
713.600           123.09          756.81
713.800           120.12          755.81
714.000           118.49          755.00
714.200           117.42          754.01
714.400           117.08          749.20
714.600           117.93          745.00
714.800           121.48          739.58
715.000           126.22          731.35
715.200           128.34          718.33
715.400           129.03          705.72
715.600           130.58          693.46
715.800           131.63          676.43
716.000           132.59          659.20
716.200           133.20          641.17
716.400           134.32          622.29
716.600           130.78          602.63
716.800           127.77          588.57
717.000           121.60          564.84
717.200           121.94          546.04
717.400           120.72          528.01
717.600           120.89          509.31
717.800           121.24          489.40
718.000           120.46          473.15
718.200           119.62          456.58
718.400           117.01          440.65
718.600           114.24          422.77
718.800           113.68          408.75
719.000           113.31          394.50
719.200           113.36          378.77
719.400           113.67          361.45
719.600           117.34          346.19
719.800           119.28          330.17
720.000           119.87          312.94
720.200           120.34          293.85
720.400           120.37          281.07
720.600           119.98          269.54
720.800           118.64          285.47
721.000           118.43          357.99
721.200           116.47          361.00
721.400           115.46          358.97
721.600           114.70          348.88
721.800           113.09          332.04
722.000           113.86          314.29
722.200           115.16          299.43
722.400           117.46          281.55
722.600           118.81          261.20
722.800           115.04          243.20
723.000           109.72          247.06
723.200           112.65          300.85
723.400           117.58          385.37
723.600           119.96          455.33
723.800           118.50          564.58
724.000           118.78          712.74
724.200           119.17          730.28
724.400           122.97          744.33
724.600           119.02          758.70
724.800           121.87          772.80
725.000           122.29          781.96
725.200           121.86          784.00
725.400           122.54          783.67
725.600           123.35          783.66
725.800           123.77          787.01
726.000           123.04          792.02
726.200           121.84          794.34
726.400           122.31          795.00
726.600           123.01          794.65
726.800           123.01          792.94
727.000           123.01          790.28
727.200           123.01          788.64
727.400           128.34          787.27
727.600           128.34          784.15
727.800           128.05          778.02
728.000           127.05          769.23
728.200           128.23          757.68
728.400           126.89          742.09
728.600           119.96          723.63
728.800           120.68          706.13
729.000           121.10          688.31
729.200           122.24          663.83
729.400           122.86          637.74
729.600           125.19          615.87
729.800           128.72          596.62
730.000           135.20          581.03
730.200           134.99          566.07
730.400           133.87          548.68
730.600           135.53          533.63
730.800           134.77          518.57
731.000           131.58          502.22
731.200           130.01          484.15
731.400           128.26          467.84
731.600           126.69          450.68
731.800           126.52          432.29
732.000           127.58          416.33
732.200           129.95          399.72
732.400           131.65          384.12
732.600           134.07          367.68
732.800           137.39          354.27
733.000           140.44          343.89
733.200           141.66          330.37
733.400           142.59          314.41
733.600           143.78          301.63
733.800           144.42          292.67
734.000           145.09          281.63
734.200           144.04          292.24
734.400           142.45          310.49
734.600           142.83          317.49
734.800           139.15          326.54
735.000           139.78          331.54
735.200           140.57          333.52
735.400           138.13          332.95
735.600           137.86          327.74
735.800           139.34          315.91
736.000           140.93          300.26
736.200           143.74          284.71
736.400           143.67          271.85
736.600           139.67          267.57
736.800           139.38          277.74
737.000           143.05          298.91
737.200           147.41          329.52
737.400           142.83          365.35
737.600           133.95          406.99
737.800           126.08          448.05
738.000           124.15          489.98
738.200           128.83          677.49
738.400           133.18          795.16
738.600           135.01          813.13
