# This LAS file was exported from StripLog 8.6.1, a product of WellSight Systems Inc..
# It is designed to pass the LAS Certify utility provided by the Canadian Well Logging Society.
# WellSight Systems does not warrant that this file will be readable by any other program, system, or process.
# If you encounter problems using this file, first contact the user who exported it, 
# and reference the appropriate LAS specification available at www.CWLS.org.
~VERSION INFORMATION
VERS      .           2.0                            : CWLS Log ASCII Standard Version
WRAP      .           NO                             : One Line per Depth Step
DLM       .           SPACE                          : Delimiter between data columns - one or more spaces
~WELL INFORMATION
STRT      .m          190                            : First Depth
STOP      .m          992                            : Last Depth
STEP      .m          0.2                            : Depth Increment
NULL      .           -999.25                        : NULL Value
COMP      .           Cardinal Energy Ltd.           : Well Operator
WELL      .           CARDINAL 102 HZ ALDSON 9-10-18-11 : Well Name
FLD       .                                          : Field
LOC       .           7-9-18-11W4                    : Location
SRVC      .           RPS Group                      : Service Company
DATE      .           2022-11-16 18:45 hrs           : Completion Date
CTRY      .                                          : Country
PROV      .                                          : Province       (required if CTRY = CA)
UWI       .           102/09-10-018-11W4/00          : Unique Well ID (required if CTRY = CA)
LIC       .           0505967                        : License        (required if CTRY = CA)
STAT      .                                          : State          (required if CTRY = US)
CNTY      .                                          : County         (required if CTRY = US)
API       .                                          : API Number     (required if CTRY = US)
# Surface Coords: 433.1 m North : 702.3 m West Boundary Section 18
LATI      .DEG                                       : Latitude  - see Surface Coords comment above
LONG      .DEG                                       : Longitude - see Surface Coords comment above
GDAT      .                                          : Geodetic Datum
EKB       .m          772.6                          : K.B. Elevation
EGL       .m          763.3                          : Ground Level Elevation
~PARAMETER
# There are no parameters
~CURVE
Depth     .m          960                            : Depth channel
Gamma     .API                                       : 
Total_Gas .units                                     : 
#Depth             Gamma       Total Gas
~ASCII
190.000          -999.25         -999.25
190.200          -999.25         -999.25
190.400          -999.25         -999.25
190.600          -999.25         -999.25
190.800          -999.25         -999.25
191.000          -999.25         -999.25
191.200          -999.25         -999.25
191.400          -999.25         -999.25
191.600          -999.25         -999.25
191.800          -999.25         -999.25
192.000          -999.25         -999.25
192.200          -999.25         -999.25
192.400          -999.25         -999.25
192.600          -999.25         -999.25
192.800          -999.25         -999.25
193.000          -999.25         -999.25
193.200          -999.25         -999.25
193.400          -999.25         -999.25
193.600          -999.25         -999.25
193.800          -999.25         -999.25
194.000          -999.25         -999.25
194.200          -999.25         -999.25
194.400          -999.25         -999.25
194.600          -999.25         -999.25
194.800          -999.25         -999.25
195.000          -999.25         -999.25
195.200          -999.25         -999.25
195.400          -999.25         -999.25
195.600          -999.25         -999.25
195.800          -999.25         -999.25
196.000          -999.25         -999.25
196.200          -999.25         -999.25
196.400          -999.25         -999.25
196.600          -999.25         -999.25
196.800          -999.25         -999.25
197.000          -999.25         -999.25
197.200          -999.25         -999.25
197.400          -999.25         -999.25
197.600          -999.25         -999.25
197.800          -999.25         -999.25
198.000          -999.25         -999.25
198.200          -999.25         -999.25
198.400          -999.25         -999.25
198.600          -999.25         -999.25
198.800          -999.25         -999.25
199.000          -999.25         -999.25
199.200          -999.25         -999.25
199.400          -999.25         -999.25
199.600          -999.25         -999.25
199.800          -999.25         -999.25
200.000          -999.25         -999.25
200.200          -999.25         -999.25
200.400          -999.25         -999.25
200.600          -999.25         -999.25
200.800          -999.25         -999.25
201.000          -999.25         -999.25
201.200          -999.25         -999.25
201.400          -999.25         -999.25
201.600          -999.25         -999.25
201.800          -999.25         -999.25
202.000          -999.25         -999.25
202.200          -999.25         -999.25
202.400          -999.25         -999.25
202.600          -999.25         -999.25
202.800          -999.25         -999.25
203.000          -999.25         -999.25
203.200          -999.25         -999.25
203.400          -999.25         -999.25
203.600          -999.25         -999.25
203.800          -999.25         -999.25
204.000          -999.25         -999.25
204.200          -999.25         -999.25
204.400          -999.25         -999.25
204.600          -999.25         -999.25
204.800          -999.25         -999.25
205.000          -999.25         -999.25
205.200          -999.25         -999.25
205.400          -999.25         -999.25
205.600          -999.25         -999.25
205.800          -999.25         -999.25
206.000          -999.25         -999.25
206.200          -999.25         -999.25
206.400          -999.25         -999.25
206.600          -999.25         -999.25
206.800          -999.25         -999.25
207.000          -999.25         -999.25
207.200          -999.25            3.00
207.400          -999.25            2.00
207.600          -999.25            2.00
207.800          -999.25            2.00
208.000          -999.25           63.00
208.200            61.69           14.00
208.400            66.09           14.00
208.600            70.27           14.00
208.800            72.26           14.00
209.000            72.84            9.00
209.200            73.40            4.00
209.400            72.43            3.00
209.600            70.99            2.00
209.800            69.91            2.00
210.000            71.06            2.00
210.200            70.33            3.00
210.400            69.27            2.00
210.600            68.13            2.00
210.800            66.66            2.00
211.000            66.02            2.00
211.200            66.48            3.00
211.400            67.50            5.00
211.600            68.36            5.00
211.800            68.87            7.00
212.000            69.26            9.00
212.200            70.20           22.00
212.400            71.84           13.00
212.600            75.68           11.00
212.800            78.28           11.00
213.000            78.28           10.00
213.200            74.61            9.00
213.400            69.35            9.00
213.600            62.53            9.00
213.800            58.96            6.00
214.000            56.63            2.00
214.200            56.67            2.00
214.400            57.70            2.00
214.600            60.14            2.00
214.800            63.64            2.00
215.000            66.45            2.00
215.200            70.78            2.00
215.400            72.93            2.00
215.600            75.44            2.00
215.800            77.18            2.00
216.000            78.18            2.00
216.200            78.59            2.00
216.400            78.59            2.00
216.600            78.36            2.00
216.800            78.08            2.00
217.000            75.21            2.00
217.200            71.95            2.00
217.400            69.25            2.00
217.600            66.62            2.00
217.800            66.19            3.00
218.000            66.90            4.00
218.200            67.72            5.00
218.400            68.11            5.00
218.600            68.11            5.00
218.800            68.11            5.00
219.000            68.11            6.00
219.200            73.37            8.00
219.400            75.55           10.00
219.600            75.23           14.00
219.800            74.93           19.00
220.000            74.62           23.00
220.200            74.27           26.00
220.400            74.21           29.00
220.600            73.93           31.00
220.800            72.95           32.00
221.000            72.19           33.00
221.200            71.54           35.00
221.400            69.19           38.00
221.600            67.91           41.00
221.800            67.52           46.00
222.000            65.42           52.00
222.200            61.88           62.00
222.400            60.48           74.00
222.600            60.48           84.00
222.800            59.47           95.00
223.000            58.20          107.00
223.200            58.22          121.00
223.400            59.20          138.00
223.600            60.27          151.00
223.800            61.33          171.00
224.000            62.23          196.00
224.200            64.87          229.00
224.400            65.46          258.00
224.600            64.81          287.00
224.800            64.20          313.00
225.000            63.59          319.00
225.200            63.08          323.00
225.400            63.34          321.00
225.600            64.56          308.00
225.800            66.18          291.00
226.000            68.42          257.00
226.200            71.09          230.00
226.400            73.05          203.00
226.600            71.54          184.00
226.800            69.27          162.00
227.000            66.84           33.00
227.200            65.48            3.00
227.400            64.90            3.00
227.600            64.37            2.00
227.800            62.45            2.00
228.000            61.04            2.00
228.200            60.67            3.00
228.400            62.39            4.00
228.600            63.04            6.00
228.800            62.02            9.00
229.000            61.11           10.00
