# This LAS file was exported from StripLog 8.6.1, a product of WellSight Systems Inc..
# It is designed to pass the LAS Certify utility provided by the Canadian Well Logging Society.
# WellSight Systems does not warrant that this file will be readable by any other program, system, or process.
# If you encounter problems using this file, first contact the user who exported it, 
# and reference the appropriate LAS specification available at www.CWLS.org.
~VERSION INFORMATION
VERS      .           2.0                            : CWLS Log ASCII Standard Version
WRAP      .           NO                             : One Line per Depth Step
DLM       .           SPACE                          : Delimiter between data columns - one or more spaces
~WELL INFORMATION
STRT      .m          190                            : First Depth
STOP      .m          992                            : Last Depth
STEP      .m          0.2                            : Depth Increment
NULL      .           -999.25                        : NULL Value
COMP      .           Cardinal Energy Ltd.           : Well Operator
WELL      .           CARDINAL 102 HZ ALDSON 9-10-18-11 : Well Name
FLD       .                                          : Field
LOC       .           7-9-18-11W4                    : Location
SRVC      .           RPS Group                      : Service Company
DATE      .           2022-11-16 18:45 hrs           : Completion Date
CTRY      .                                          : Country
PROV      .                                          : Province       (required if CTRY = CA)
UWI       .           102/09-10-018-11W4/00          : Unique Well ID (required if CTRY = CA)
LIC       .           0505967                        : License        (required if CTRY = CA)
STAT      .                                          : State          (required if CTRY = US)
CNTY      .                                          : County         (required if CTRY = US)
API       .                                          : API Number     (required if CTRY = US)
# Surface Coords: 433.1 m North : 702.3 m West Boundary Section 18
LATI      .DEG                                       : Latitude  - see Surface Coords comment above
LONG      .DEG                                       : Longitude - see Surface Coords comment above
GDAT      .                                          : Geodetic Datum
EKB       .m          772.6                          : K.B. Elevation
EGL       .m          763.3                          : Ground Level Elevation
~PARAMETER
# There are no parameters
~CURVE
Depth     .m          960                            : Depth channel
Gamma     .API                                       : 
Total_Gas .units                                     : 
#Depth             Gamma       Total Gas
~ASCII
# ...
229.200            60.19           12.00
229.400            59.28           14.00
229.600            58.63           14.00
229.800            58.61           14.00
230.000            60.46           14.00
230.200            61.83           14.00
230.400            63.21           13.00
230.600            64.33           12.00
230.800            65.85           11.00
231.000            68.09           11.00
231.200            68.64            9.00
231.400            68.18            9.00
231.600            66.22            9.00
231.800            64.11            9.00
232.000            63.92            8.00
232.200            65.29            8.00
232.400            66.68            8.00
232.600            67.91            7.00
232.800            68.92            6.00
233.000            69.87            5.00
233.200            70.69            5.00
233.400            71.93            6.00
233.600            72.83            7.00
233.800            73.93            8.00
234.000            75.94            9.00
234.200            78.40           12.00
234.400            80.56           14.00
234.600            78.78           17.00
234.800            78.78           20.00
235.000            78.78           23.00
235.200            78.78           27.00
235.400            78.78           31.00
235.600            77.55           34.00
235.800            75.11           36.00
236.000            67.49           38.00
236.200            62.16           43.00
236.400            61.13           47.00
236.600            60.18           52.00
236.800            58.81           55.00
237.000            57.62           59.00
237.200            60.67           70.00
237.400            64.98            2.00
237.600            70.08            2.00
237.800            70.79            2.00
238.000            70.28            2.00
238.200            69.80            2.00
238.400            68.78            2.00
238.600            67.34            2.00
238.800            66.39            2.00
239.000            66.17            2.00
239.200            65.89            2.00
239.400            65.44            2.00
239.600            65.70            5.00
239.800            69.48            8.00
240.000            71.97           58.00
240.200            72.87            2.00
240.400            70.17            2.00
240.600            69.14            3.00
240.800            68.38            2.00
241.000            67.71            3.00
241.200            66.53            3.00
241.400            65.06            3.00
241.600            64.58            2.00
241.800            64.84            2.00
242.000            64.83            2.00
242.200            63.85            2.00
242.400            63.76            2.00
242.600            64.10            2.00
242.800            66.77            3.00
243.000            68.31            5.00
243.200            68.84            7.00
243.400            68.87           10.00
243.600            69.28           13.00
243.800            70.13           15.00
244.000            70.89           17.00
244.200            71.71           18.00
244.400            69.90           18.00
244.600            70.06           18.00
244.800            70.07           16.00
245.000            71.46           15.00
245.200            74.27           14.00
245.400            76.12           14.00
245.600            77.83           13.00
245.800            78.64           12.00
246.000            78.06           12.00
246.200            75.97           13.00
246.400            73.41           13.00
246.600            70.61           12.00
246.800            70.46           11.00
247.000            71.16           11.00
247.200            71.00           11.00
247.400            70.45           10.00
247.600            69.30           10.00
247.800            68.21           11.00
248.000            66.28           11.00
248.200            61.48           12.00
248.400            58.52           12.00
248.600            56.08           12.00
248.800            54.57           11.00
249.000            53.52           12.00
249.200            53.21           13.00
249.400            54.11           13.00
249.600            54.75           13.00
249.800            55.85           13.00
250.000            58.09           14.00
250.200            60.46           13.00
250.400            62.77           13.00
250.600            64.86           12.00
250.800            67.55           13.00
251.000            70.11           13.00
251.200            71.65           13.00
251.400            73.16           13.00
251.600            74.86           13.00
251.800            76.49           13.00
252.000            77.11           13.00
252.200            76.84           13.00
252.400            76.64           13.00
252.600            76.22           14.00
252.800            75.24           14.00
253.000            74.48           24.00
253.200            73.66            2.00
253.400            75.70            8.00
253.600            78.89            2.00
253.800            82.20            2.00
254.000            82.95            2.00
254.200            82.87            4.00
254.400            83.22            4.00
254.600            82.65            4.00
254.800            82.05            5.00
255.000            81.34            5.00
255.200            80.69            6.00
255.400            80.03            9.00
255.600            79.76           10.00
255.800            78.44           14.00
256.000            74.78           17.00
256.200            73.00           20.00
256.400            72.19           23.00
256.600            71.43           25.00
256.800            70.67           26.00
257.000            69.96           26.00
257.200            68.74           25.00
257.400            66.94           25.00
257.600            64.99           25.00
257.800            63.16           23.00
258.000            59.18           22.00
258.200            56.29           21.00
258.400            53.58           19.00
258.600            50.32           19.00
258.800            45.50           20.00
259.000            45.60           20.00
259.200            46.07           18.00
259.400            46.50           15.00
259.600            47.29           12.00
259.800            48.65           10.00
260.000            49.79           10.00
260.200            51.18            9.00
260.400            55.36            8.00
260.600            60.56            6.00
260.800            65.12            6.00
261.000            68.74            5.00
261.200            70.49            3.00
261.400            72.51            3.00
261.600            75.19            3.00
261.800            75.20            3.00
262.000            74.59            3.00
262.200            74.69            2.00
262.400            74.56            2.00
262.600            73.72            2.00
262.800            72.66            4.00
263.000            71.44            3.00
263.200            70.22            2.00
263.400            69.00            2.00
263.600            67.88            2.00
263.800            68.02            2.00
264.000            69.36            2.00
264.200            69.63            2.00
264.400            69.63            2.00
264.600            69.63            2.00
264.800            70.69            2.00
265.000            73.34            3.00
265.200            74.93            3.00
265.400            76.35            3.00
265.600            71.51            3.00
265.800            69.75            3.00
266.000            71.70            3.00
266.200            72.68            3.00
266.400            72.68            3.00
266.600            73.19            3.00
266.800            73.83           35.00
267.000            73.83            4.00
267.200            72.95            4.00
267.400            72.19            3.00
267.600            71.92            3.00
267.800            71.92            3.00
268.000            71.92            2.00
268.200            71.92            3.00
