# This LAS file was exported from StripLog 8.6.1, a product of WellSight Systems Inc..
# It is designed to pass the LAS Certify utility provided by the Canadian Well Logging Society.
# WellSight Systems does not warrant that this file will be readable by any other program, system, or process.
# If you encounter problems using this file, first contact the user who exported it, 
# and reference the appropriate LAS specification available at www.CWLS.org.
~VERSION INFORMATION
VERS      .           2.0                            : CWLS Log ASCII Standard Version
WRAP      .           NO                             : One Line per Depth Step
DLM       .           SPACE                          : Delimiter between data columns - one or more spaces
~WELL INFORMATION
STRT      .m          190                            : First Depth
STOP      .m          992                            : Last Depth
STEP      .m          0.2                            : Depth Increment
NULL      .           -999.25                        : NULL Value
COMP      .           Cardinal Energy Ltd.           : Well Operator
WELL      .           CARDINAL 102 HZ ALDSON 9-10-18-11 : Well Name
FLD       .                                          : Field
LOC       .           7-9-18-11W4                    : Location
SRVC      .           RPS Group                      : Service Company
DATE      .           2022-11-16 18:45 hrs           : Completion Date
CTRY      .                                          : Country
PROV      .                                          : Province       (required if CTRY = CA)
UWI       .           102/09-10-018-11W4/00          : Unique Well ID (required if CTRY = CA)
LIC       .           0505967                        : License        (required if CTRY = CA)
STAT      .                                          : State          (required if CTRY = US)
CNTY      .                                          : County         (required if CTRY = US)
API       .                                          : API Number     (required if CTRY = US)
# Surface Coords: 433.1 m North : 702.3 m West Boundary Section 18
LATI      .DEG                                       : Latitude  - see Surface Coords comment above
LONG      .DEG                                       : Longitude - see Surface Coords comment above
GDAT      .                                          : Geodetic Datum
EKB       .m          772.6                          : K.B. Elevation
EGL       .m          763.3                          : Ground Level Elevation
~PARAMETER
# There are no parameters
~CURVE
Depth     .m          960                            : Depth channel
Gamma     .API                                       : 
Total_Gas .units                                     : 
#Depth             Gamma       Total Gas
~ASCII
# ...
346.800           104.02           42.00
347.000           105.85           42.00
347.200           106.99           42.00
347.400           106.99           41.95
347.600           106.61           40.95
347.800           106.23           39.95
348.000           106.23           39.00
348.200           105.48           38.95
348.400           104.51           38.00
348.600           103.52           37.95
348.800           102.83           36.95
349.000           102.32           36.00
349.200           101.86           35.95
349.400           101.33           35.00
349.600           100.79           34.95
349.800           100.40           34.00
350.000           100.03           34.05
350.200            99.70           35.05
350.400            99.50           36.05
350.600            99.56           37.00
350.800           100.06           37.10
351.000            98.95           39.00
351.200            98.15           39.00
351.400            99.14           39.00
351.600            99.90           39.00
351.800           100.51           39.00
352.000           104.77           39.00
352.200           107.34           39.00
352.400           108.03           39.00
352.600           108.64           39.00
352.800           109.25           39.00
353.000           109.77           39.00
353.200           110.27           39.05
353.400           110.78           40.00
353.600           112.16           40.00
353.800           113.83           40.00
354.000           115.92           40.00
354.200           116.97           39.90
354.400           117.32           37.90
354.600           116.44           35.90
354.800           115.98           33.90
355.000           115.72           31.90
355.200           115.51           29.80
355.400           115.57           25.95
355.600           115.99           24.90
355.800           116.39           22.90
356.000           116.83           20.85
356.200           116.21           17.95
356.400           115.29           16.90
356.600           114.34           14.95
356.800           113.51           13.90
357.000           112.33           11.90
357.200           111.20            9.95
357.400           110.60            8.90
357.600           110.02            6.95
357.800           109.32            5.90
358.000           107.54            3.95
358.200           103.66            3.00
358.400           101.66            2.95
358.600           103.38            2.95
358.800           105.37           20.95
359.000           106.63           19.90
359.200           108.06           17.95
359.400           109.25           16.95
359.600           110.91           16.00
359.800           113.36           16.00
360.000           112.77           16.05
360.200           111.27           17.00
360.400           110.02           17.00
360.600           108.87           17.00
360.800           108.01           17.00
361.000           108.80           17.00
361.200           110.05           17.05
361.400           108.12           18.05
361.600           104.71           19.00
361.800           101.24           19.00
362.000            99.62           19.00
362.200            98.74           19.00
362.400            97.59           18.95
362.600            96.27           17.95
362.800            94.90           17.00
363.000            93.53           17.00
363.200            92.43           17.00
363.400            92.50           16.95
363.600            94.16           16.00
363.800            95.19           16.00
364.000            95.88           15.95
364.200            96.51           14.90
364.400            97.15           13.00
364.600            97.78           12.95
364.800            98.50           11.90
365.000            99.17           10.00
365.200            99.75            9.95
365.400            99.25            8.95
365.600            98.41            8.00
365.800            98.87            8.00
366.000           100.05            8.00
366.200           101.31            8.00
366.400           101.87            8.00
366.600           102.18            7.95
366.800           102.48            7.00
367.000           102.79            7.00
367.200           103.07            7.00
367.400           103.43            7.00
367.600           103.89            7.00
367.800           104.06            7.00
368.000           104.20            7.00
368.200           104.35            7.00
368.400           104.50            6.95
368.600           104.63            6.05
368.800           105.38            7.00
369.000           105.08            7.00
369.200           105.47            7.00
369.400           107.77            6.95
369.600           108.68            6.00
369.800           108.95            6.00
370.000           109.17            5.95
370.200           109.89            4.90
370.400           111.01            3.00
370.600           111.86            3.00
370.800           111.90            2.95
371.000           111.01            2.00
371.200           110.81            2.05
371.400           109.05            3.05
371.600           107.89            6.40
371.800           108.77           52.15
372.000           109.92           55.10
372.200           110.96           57.15
372.400           111.16           60.05
372.600           110.09           61.10
372.800           110.04           63.00
373.000           110.04           63.05
373.200           110.04           64.10
373.400           110.04           66.05
373.600           111.71           67.05
373.800           115.20           68.05
374.000           116.66           69.10
374.200           118.19           71.05
374.400           119.61           72.10
374.600           120.49           74.05
374.800           121.25           75.10
375.000           121.92           77.15
375.200           122.24           80.05
375.400           122.24           81.10
375.600           122.24           83.05
375.800           121.33           84.05
376.000           119.53           85.05
376.200           118.97           86.00
376.400           118.67           86.05
376.600           118.37           87.00
376.800           118.06           86.95
377.000           117.75           85.95
377.200           117.67           85.00
377.400           117.82           84.95
377.600           118.32           83.95
377.800           118.16           82.95
378.000           117.86           81.95
378.200           119.02           81.05
378.400           120.53           82.10
378.600           121.83           84.15
378.800           121.23           87.20
379.000           119.65           91.15
379.200           118.46           94.10
379.400           117.41           96.05
379.600           116.70           96.95
379.800           116.12           95.90
380.000           115.51           93.80
380.200           113.35           89.75
380.400           110.63           84.70
380.600           108.22           78.70
380.800           107.22           72.80
381.000           107.68           68.70
381.200           107.76           62.85
381.400           107.76           59.70
381.600           106.23           53.80
381.800           105.47           49.75
382.000           105.47           44.85
382.200           105.20           41.85
382.400           104.90           38.90
382.600           104.71           36.80
382.800           104.71           32.85
383.000           104.71           29.95
383.200           104.71           28.90
383.400           106.62           26.85
383.600           109.28           23.95
383.800           110.03           22.90
384.000           109.08           20.95
384.200           108.13           19.90
384.400           108.67           18.85
384.600           100.67           35.05
384.800            96.67           35.95
385.000            97.21           35.10
385.200           101.21           37.00
385.400           106.60           37.10
385.600           101.74           39.00
385.800            96.36           39.05
