# This LAS file was exported from StripLog 8.6.1, a product of WellSight Systems Inc..
# It is designed to pass the LAS Certify utility provided by the Canadian Well Logging Society.
# WellSight Systems does not warrant that this file will be readable by any other program, system, or process.
# If you encounter problems using this file, first contact the user who exported it, 
# and reference the appropriate LAS specification available at www.CWLS.org.
~VERSION INFORMATION
VERS      .           2.0                            : CWLS Log ASCII Standard Version
WRAP      .           NO                             : One Line per Depth Step
DLM       .           SPACE                          : Delimiter between data columns - one or more spaces
~WELL INFORMATION
STRT      .m          190                            : First Depth
STOP      .m          992                            : Last Depth
STEP      .m          0.2                            : Depth Increment
NULL      .           -999.25                        : NULL Value
COMP      .           Cardinal Energy Ltd.           : Well Operator
WELL      .           CARDINAL 102 HZ ALDSON 9-10-18-11 : Well Name
FLD       .                                          : Field
LOC       .           7-9-18-11W4                    : Location
SRVC      .           RPS Group                      : Service Company
DATE      .           2022-11-16 18:45 hrs           : Completion Date
CTRY      .                                          : Country
PROV      .                                          : Province       (required if CTRY = CA)
UWI       .           102/09-10-018-11W4/00          : Unique Well ID (required if CTRY = CA)
LIC       .           0505967                        : License        (required if CTRY = CA)
STAT      .                                          : State          (required if CTRY = US)
CNTY      .                                          : County         (required if CTRY = US)
API       .                                          : API Number     (required if CTRY = US)
# Surface Coords: 433.1 m North : 702.3 m West Boundary Section 18
LATI      .DEG                                       : Latitude  - see Surface Coords comment above
LONG      .DEG                                       : Longitude - see Surface Coords comment above
GDAT      .                                          : Geodetic Datum
EKB       .m          772.6                          : K.B. Elevation
EGL       .m          763.3                          : Ground Level Elevation
~PARAMETER
# There are no parameters
~CURVE
Depth     .m          960                            : Depth channel
Gamma     .API                                       : 
Total_Gas .units                                     : 
#Depth             Gamma       Total Gas
~ASCII
# ...
425.200           137.36          356.00
425.400           136.09          355.95
425.600           135.07          355.05
425.800           136.47          356.25
426.000           135.41          362.30
426.200           133.70          389.00
426.400           132.28          428.85
426.600           132.17          466.55
426.800           133.12          516.35
427.000           134.17          542.95
427.200           134.08          562.10
427.400           133.58          583.95
427.600           133.03          602.70
427.800           134.23          616.60
428.000           135.64          628.50
428.200           136.35          638.55
428.400           135.03          649.40
428.600           130.90          657.25
428.800           126.47          662.45
429.000           125.43          671.35
429.200           125.86          678.50
429.400           126.59          688.50
429.600           127.35          698.40
429.800           128.06          706.45
430.000           130.63          715.50
430.200           134.90          725.50
430.400           138.86          735.35
430.600           141.30          742.35
430.800           142.64          749.35
431.000           142.14          756.35
431.200           143.41          763.25
431.400           143.05          768.25
431.600           139.93          773.15
431.800           138.28          776.00
432.000           137.25          776.00
432.200           136.92          776.00
432.400           136.13          775.95
432.600           135.43          775.05
432.800           134.67          776.05
433.000           133.88          777.05
433.200           134.56          778.00
433.400           135.51          778.00
433.600           136.07          777.95
433.800           136.62          776.85
434.000           138.09          773.80
434.200           139.48          769.65
434.400           140.16          762.60
434.600           141.84          754.50
434.800           143.01          744.50
435.000           144.78          734.45
435.200           146.45          723.40
435.400           146.35          711.50
435.600           145.14          701.45
435.800           143.80          690.35
436.000           142.74          677.35
436.200           140.19          664.35
436.400           139.92          651.20
436.600           140.10          635.20
436.800           140.29          617.80
437.000           140.48          574.25
437.200           140.91          539.60
437.400           142.07          511.80
437.600           141.46          482.45
437.800           139.13          357.65
438.000           140.75          350.85
438.200           140.12          347.90
438.400           139.32          345.85
438.600           140.16          342.90
438.800           140.93          340.85
439.000           143.15          337.90
439.200           143.17          335.85
439.400           142.74          333.00
439.600           142.57          333.00
439.800           142.42          333.00
440.000           142.27          333.05
440.200           142.14          334.05
440.400           137.23          335.00
440.600           134.72          335.00
440.800           132.94          334.95
441.000           131.03          333.90
441.200           130.63          331.84
441.400           130.17          328.84
441.600           128.69          325.79
441.800           127.28          321.73
442.000           126.06          316.73
442.200           121.90          311.84
442.400           118.65          308.57
442.600           115.89          300.52
442.800           114.60          291.68
443.000           113.57          285.62
443.200           112.50          278.67
443.400           111.43          272.56
443.600           110.17          264.62
443.800           109.63          257.61
444.000           110.09          250.78
444.200           112.31          246.50
444.400           113.70          237.72
444.600           114.97          232.78
444.800           115.97          228.66
445.000           118.99          222.78
445.200           121.67          218.61
445.400           122.17          211.77
445.600           121.82          207.66
445.800           122.24          201.77
446.000           124.19          197.66
446.200           122.98          191.71
446.400           120.90          186.71
446.600           118.77          181.77
446.800           116.63          177.60
447.000           114.92          170.65
447.200           112.12          164.77
447.400           111.05          160.65
447.600           110.27          154.59
447.800           109.51          147.65
448.000           108.75          141.71
448.200           108.14          136.82
448.400           109.67          133.82
448.600           111.03          130.82
448.800           111.52          127.76
449.000           111.57          123.88
449.200           111.92          121.70
449.400           112.86          116.82
449.600           113.45          113.82
449.800           113.94          110.88
450.000           114.18          108.94
450.200           114.37          107.94
450.400           114.53          106.88
450.600           115.52          104.88
450.800           116.71          102.94
451.000           114.67          101.81
451.200           113.96           98.44
451.400           115.41           90.37
451.600           115.45           96.31
451.800           114.01          101.19
452.000           114.55          104.19
452.200           115.12          107.19
452.400           114.89          110.31
452.600           114.24          115.25
452.800           113.86          119.32
453.000           114.57          124.38
453.200           115.67          130.45
453.400           116.74          137.51
453.600           117.81          145.45
453.800           118.66          152.64
454.000           120.59          162.58
454.200           122.44          171.58
454.400           124.61          180.39
454.600           127.07          186.33
454.800           126.75          191.52
455.000           125.87          199.26
455.200           124.26          203.20
455.400           123.54          206.20
455.600           123.09          209.26
455.800           121.87          213.33
456.000           120.57          218.20
456.200           120.15          221.20
456.400           120.31          224.13
456.600           120.73          226.27
456.800           121.19          230.13
457.000           121.65          232.13
457.200           122.02          234.27
457.400           122.69          238.34
457.600           122.71          243.41
457.800           121.97          249.34
458.000           121.36          254.48
458.200           120.75          261.96
458.400           120.18          275.69
458.600           118.69          285.89
458.800           116.38          298.69
459.000           117.35          308.90
459.200           117.82          321.90
459.400           115.98          334.63
459.600           116.37          343.56
459.800           117.97          351.77
460.000           119.50          362.35
460.200           120.72          367.35
460.400           121.18          372.14
460.600           120.89          374.14
460.800           120.44          376.07
461.000           120.03          376.93
461.200           120.21          375.86
461.400           120.36          373.71
461.600           120.52          369.71
461.800           120.67          365.57
462.000           121.25          359.64
462.200           121.86          354.64
462.400           124.31          349.64
462.600           126.48          344.49
462.800           128.16          337.64
463.000           127.76          332.64
463.200           126.44          327.71
463.400           125.57          323.63
463.600           124.02          318.63
463.800           122.05          313.78
464.000           120.15          310.78
464.200           117.91          307.70
