# This LAS file was exported from StripLog 8.6.1, a product of WellSight Systems Inc..
# It is designed to pass the LAS Certify utility provided by the Canadian Well Logging Society.
# WellSight Systems does not warrant that this file will be readable by any other program, system, or process.
# If you encounter problems using this file, first contact the user who exported it, 
# and reference the appropriate LAS specification available at www.CWLS.org.
~VERSION INFORMATION
VERS      .           2.0                            : CWLS Log ASCII Standard Version
WRAP      .           NO                             : One Line per Depth Step
DLM       .           SPACE                          : Delimiter between data columns - one or more spaces
~WELL INFORMATION
STRT      .m          190                            : First Depth
STOP      .m          992                            : Last Depth
STEP      .m          0.2                            : Depth Increment
NULL      .           -999.25                        : NULL Value
COMP      .           Cardinal Energy Ltd.           : Well Operator
WELL      .           CARDINAL 102 HZ ALDSON 9-10-18-11 : Well Name
FLD       .                                          : Field
LOC       .           7-9-18-11W4                    : Location
SRVC      .           RPS Group                      : Service Company
DATE      .           2022-11-16 18:45 hrs           : Completion Date
CTRY      .                                          : Country
PROV      .                                          : Province       (required if CTRY = CA)
UWI       .           102/09-10-018-11W4/00          : Unique Well ID (required if CTRY = CA)
LIC       .           0505967                        : License        (required if CTRY = CA)
STAT      .                                          : State          (required if CTRY = US)
CNTY      .                                          : County         (required if CTRY = US)
API       .                                          : API Number     (required if CTRY = US)
# Surface Coords: 433.1 m North : 702.3 m West Boundary Section 18
LATI      .DEG                                       : Latitude  - see Surface Coords comment above
LONG      .DEG                                       : Longitude - see Surface Coords comment above
GDAT      .                                          : Geodetic Datum
EKB       .m          772.6                          : K.B. Elevation
EGL       .m          763.3                          : Ground Level Elevation
~PARAMETER
# There are no parameters
~CURVE
Depth     .m          960                            : Depth channel
Gamma     .API                                       : 
Total_Gas .units                                     : 
#Depth             Gamma       Total Gas
~ASCII
# ...
503.600           148.71          440.60
503.800           146.82          416.80
504.000           145.15          394.80
504.200           143.55          373.70
504.400           140.21          349.20
504.600           135.66          239.20
504.800           136.99          288.60
505.000           139.21          314.10
505.200           138.63          334.00
505.400           136.87          343.60
505.600           137.17          349.40
505.800           136.44          353.40
506.000           135.20          357.60
506.200           132.77          363.50
506.400           136.73          368.50
506.600           137.96          373.70
506.800           137.66          380.40
507.000           141.96          384.50
507.200           145.06          389.70
507.400           144.17          396.80
507.600           143.04          404.60
507.800           140.22          410.60
508.000           138.31          416.60
508.200           138.26          423.00
508.400           139.32          433.10
508.600           138.14          444.10
508.800           140.20          455.20
509.000           143.12          467.20
509.200           143.14          478.90
509.400           143.98          487.80
509.600           141.69          496.10
509.800           136.20          507.60
510.000           133.88          523.80
510.200           134.43          541.90
510.400           137.05          560.70
510.600           140.07          577.30
510.800           143.97          590.00
511.000           148.97          599.30
511.200           149.24          602.40
511.400           149.52          606.20
511.600           146.64          608.30
511.800           141.88          611.30
512.000           138.41          614.70
512.200           137.55          621.70
512.400           138.95          628.70
512.600           139.98          635.90
512.800           141.46          645.20
513.000           143.70          657.20
513.200           146.80          669.40
513.400           149.40          682.60
513.600           150.60          688.10
513.800           150.38          688.90
514.000           147.07          687.80
514.200           145.08          685.40
514.400           143.96          679.10
514.600           141.11          668.50
514.800           137.82          643.30
515.000           134.98          616.30
515.200           133.16          586.90
515.400           130.04          538.00
515.600           130.25          507.90
515.800           134.84          477.20
516.000           140.62          449.10
516.200           146.73          420.70
516.400           151.74          397.30
516.600           153.50          369.90
516.800           153.50          338.40
517.000           154.39          303.80
517.200           154.06          282.10
517.400           150.89          263.50
517.600           146.32          248.50
517.800           137.90          234.00
518.000           134.23          214.90
518.200           131.96          124.05
518.400           129.38          124.55
518.600           133.91          137.40
518.800           137.19          250.50
519.000           140.93          265.20
519.200           144.68          277.10
519.400           145.92          288.70
519.600           146.83          305.90
519.800           148.63          324.60
520.000           149.69          340.10
520.200           152.89          351.00
520.400           155.07          361.40
520.600           158.80          375.50
520.800           164.79          390.60
521.000           166.11          406.00
521.200           162.65          416.20
521.400           159.71          428.40
521.600           152.32          442.90
521.800           141.45          461.80
522.000           127.56          481.30
522.200           124.15          513.70
522.400           120.27          543.00
522.600           122.33          590.80
522.800           124.85          619.40
523.000           127.15          653.30
523.200           127.70          684.90
523.400           128.15          703.00
523.600           130.11          712.80
523.800           130.32          720.40
524.000           128.72          724.10
524.200           127.35          725.00
524.400           124.41          724.80
524.600           122.48          723.20
524.800           117.50          725.70
525.000           115.56          732.80
525.200           115.00          740.80
525.400           118.89          748.60
525.600           122.62          754.40
525.800           127.79          758.40
526.000           128.85          762.20
526.200           129.95          764.20
526.400           129.61          766.20
526.600           127.58          768.10
526.800           126.46          768.90
527.000           126.06          767.40
527.200           121.65          760.60
527.400           120.53          746.70
527.600           121.29          732.50
527.800           121.86          707.80
528.000           121.54          685.20
528.200           122.72          658.30
528.400           123.77          641.30
528.600           124.47          624.50
528.800           120.35          609.30
529.000           117.39          592.60
529.200           116.59          578.00
529.400           116.63          558.40
529.600           117.48          542.80
529.800           118.13          531.20
530.000           120.12          523.20
530.200           121.48          515.40
530.400           121.48          510.00
530.600           121.48          510.20
530.800           122.61          512.00
531.000           124.15          511.80
531.200           126.25          509.10
531.400           127.67          499.60
531.600           128.92          485.20
531.800           132.05          466.40
532.000           136.28          440.70
532.200           127.58          453.30
532.400           124.25          755.90
532.600           123.90          784.00
532.800           122.15          803.80
533.000           122.05          821.20
533.200           122.96          833.00
533.400           121.56          842.80
533.600           123.00          850.50
533.800           124.53          855.20
534.000           124.61          857.20
534.200           125.03          859.30
534.400           123.72          863.10
534.600           122.03          874.50
534.800           120.85          890.70
535.000           119.54          916.80
535.200           118.35          935.10
535.400           117.67          956.10
535.600           119.20          977.20
535.800           118.83          997.80
536.000           118.71         1005.80
536.200           119.00         1013.50
536.400           122.75         1018.50
536.600           120.63         1023.80
536.800           119.96         1031.90
537.000           119.96         1040.70
537.200           118.69         1047.60
537.400           116.70         1053.50
537.600           118.12         1058.20
537.800           120.29         1060.00
538.000           121.86         1059.90
538.200           122.24         1058.70
538.400           122.24         1055.30
538.600           122.24         1048.50
538.800           122.24         1043.40
539.000           122.24         1037.50
539.200           122.02         1032.60
539.400           122.16         1029.20
539.600           123.90         1031.60
539.800           125.63         1037.70
540.000           126.69         1044.30
540.200           125.64         1047.00
540.400           124.50         1046.60
540.600           124.58         1042.20
540.800           127.04         1033.30
541.000           128.85         1015.50
541.200           129.83          989.70
541.400           130.59          957.00
541.600           129.87          926.30
541.800           126.82          889.40
542.000           124.53          853.60
542.200           124.53          821.30
542.400           124.53          804.10
542.600           124.53          784.90
