# This LAS file was exported from StripLog 8.6.1, a product of WellSight Systems Inc..
# It is designed to pass the LAS Certify utility provided by the Canadian Well Logging Society.
# WellSight Systems does not warrant that this file will be readable by any other program, system, or process.
# If you encounter problems using this file, first contact the user who exported it, 
# and reference the appropriate LAS specification available at www.CWLS.org.
~VERSION INFORMATION
VERS      .           2.0                            : CWLS Log ASCII Standard Version
WRAP      .           NO                             : One Line per Depth Step
DLM       .           SPACE                          : Delimiter between data columns - one or more spaces
~WELL INFORMATION
STRT      .m          190                            : First Depth
STOP      .m          992                            : Last Depth
STEP      .m          0.2                            : Depth Increment
NULL      .           -999.25                        : NULL Value
COMP      .           Cardinal Energy Ltd.           : Well Operator
WELL      .           CARDINAL 102 HZ ALDSON 9-10-18-11 : Well Name
FLD       .                                          : Field
LOC       .           7-9-18-11W4                    : Location
SRVC      .           RPS Group                      : Service Company
DATE      .           2022-11-16 18:45 hrs           : Completion Date
CTRY      .                                          : Country
PROV      .                                          : Province       (required if CTRY = CA)
UWI       .           102/09-10-018-11W4/00          : Unique Well ID (required if CTRY = CA)
LIC       .           0505967                        : License        (required if CTRY = CA)
STAT      .                                          : State          (required if CTRY = US)
CNTY      .                                          : County         (required if CTRY = US)
API       .                                          : API Number     (required if CTRY = US)
# Surface Coords: 433.1 m North : 702.3 m West Boundary Section 18
LATI      .DEG                                       : Latitude  - see Surface Coords comment above
LONG      .DEG                                       : Longitude - see Surface Coords comment above
GDAT      .                                          : Geodetic Datum
EKB       .m          772.6                          : K.B. Elevation
EGL       .m          763.3                          : Ground Level Elevation
~PARAMETER
# There are no parameters
~CURVE
Depth     .m          960                            : Depth channel
Gamma     .API                                       : 
Total_Gas .units                                     : 
#Depth             Gamma       Total Gas
~ASCII
# ...
307.600            94.45           69.08
307.800            94.66           72.05
308.000            94.37           74.03
308.200            93.12           75.14
308.400            92.30           80.08
308.600            92.02           83.08
308.800            93.00           86.11
309.000            93.61           90.11
309.200            94.72           94.08
309.400            97.17           97.08
309.600            98.83          100.09
309.800           100.82          103.17
310.000           103.84          109.09
310.200           105.43          112.09
310.400           106.91          115.12
310.600           105.99          119.12
310.800           105.29          123.24
311.000           104.97          131.18
311.200           104.65          137.18
311.400           104.34          143.21
311.600           103.99          150.30
311.800           102.37          160.24
312.000           101.35          168.24
312.200           102.84          176.22
312.400           103.98          183.31
312.600           104.90          193.16
312.800           105.47          198.16
313.000           106.42          203.03
313.200           107.75          197.65
313.400           109.52            4.00
313.600           109.81            3.97
313.800           109.31            3.00
314.000           110.68            2.97
314.200           111.83            2.03
314.400           112.34            3.00
314.600           112.80            3.00
314.800           113.26            3.07
315.000           113.78            5.03
315.200           113.39            6.00
315.400           112.63            6.03
315.600           111.80            7.00
315.800           111.06            7.07
316.000           109.75            9.03
316.200           108.35           10.03
316.400           107.89           11.07
316.600           107.07           13.07
316.800           106.23           15.04
317.000           106.23           16.07
317.200           105.19           18.04
317.400           103.94           19.14
317.600           103.18           23.14
317.800           103.18           27.14
318.000           103.18           31.15
318.200           103.18           35.18
318.400           102.50           40.11
318.600           101.47           43.07
318.800           102.74           50.71
319.000           102.42          192.41
319.200           100.79           22.37
319.400           100.13           32.53
319.600           100.13           46.30
319.800            98.67           54.27
320.000            98.61           61.27
320.200           101.07           68.15
320.400           104.71           72.08
320.600           107.19           74.08
320.800           108.52           76.12
321.000           108.52           79.00
321.200           108.52           79.04
321.400           108.52           80.00
321.600           108.07           79.96
321.800           107.32           78.88
322.000           106.46           75.88
322.200           105.70           72.96
322.400           104.94           71.96
322.600           103.99           70.92
322.800           105.81           68.96
323.000           107.65           67.96
323.200           109.14           67.00
323.400           110.53           66.96
323.600           111.57           66.00
323.800           111.57           66.04
324.000           111.57           67.04
324.200           111.57           68.08
324.400           110.06           70.04
324.600           108.33           71.04
324.800           106.96           72.13
325.000           106.04           75.13
325.200           105.32           78.13
325.400           105.15           81.13
325.600           104.96           84.26
325.800           104.77           90.22
326.000           105.49           95.13
326.200           106.42           98.18
326.400           105.80          102.18
326.600           104.76          106.13
326.800           104.10          109.18
327.000           104.58          113.09
327.200           103.92          115.18
327.400           102.99          119.18
327.600           101.24          123.09
327.800            99.83          125.09
328.000            97.94          127.00
328.200            97.65          127.00
328.400            97.42          126.95
328.600            97.21          125.91
328.800            97.08          123.91
329.000            97.08          121.81
329.200            97.08          117.81
329.400            97.59          113.86
329.600            99.75          110.86
329.800           102.41          107.72
330.000           104.93          101.81
330.200           106.84           97.81
330.400           109.89           93.90
330.600           111.49           91.86
330.800           112.33           88.95
331.000           112.33           87.95
331.200           112.33           87.00
331.400           112.33           86.90
331.600           109.13           85.00
331.800           104.97           84.90
332.000           106.14           82.85
332.200           106.42           87.91
332.400           104.93          239.05
332.600           102.73          239.85
332.800            99.94          236.65
333.000            99.21          229.80
333.200            99.83          225.80
333.400           100.38          221.85
333.600           100.70          218.80
333.800            98.47          214.70
334.000           100.78          208.75
334.200           104.29          203.55
334.400           105.22          194.60
334.600           104.44          186.70
334.800           103.36          180.50
335.000           103.96          170.70
335.200           104.41          164.50
335.400           104.87          154.65
335.600           105.30          147.65
335.800           104.96          140.75
336.000           104.32          135.55
336.200           104.54          126.70
336.400           105.24          120.70
336.600           106.03          114.70
336.800           105.96          108.55
337.000           105.66           99.80
337.200           104.98           95.65
337.400           105.14           88.75
337.600           106.06           83.80
337.800           106.23           79.80
338.000           106.23           75.65
338.200           105.83           68.75
338.400           105.37           63.80
338.600           104.88           59.85
338.800           102.62           56.85
339.000            99.53           51.55
339.200            97.03            5.00
339.400            94.74            5.00
339.600            92.97            5.00
339.800            91.76            5.05
340.000            90.69            6.00
340.200            89.62            6.00
340.400            88.56            6.05
340.600            87.59            7.20
340.800            88.65           11.35
341.000            91.34           18.35
341.200            92.03           25.65
341.400            92.32           38.55
341.600            94.57           49.70
341.800            95.56           63.25
342.000            95.56           68.30
342.200            95.56           74.15
342.400            96.28           77.00
342.600            97.83           76.95
342.800            99.16           75.95
343.000           100.22           74.95
343.200           100.89           73.90
343.400           100.89           71.80
343.600           100.89           67.90
343.800           101.77           65.90
344.000           103.06           63.95
344.200           104.12           63.05
344.400           104.49           64.05
344.600           104.01           65.10
344.800           104.36           67.05
345.000           105.12           68.15
345.200           105.09           69.88
345.400           102.63           47.38
345.600           100.17           26.35
345.800            97.50           33.20
346.000            94.21           37.05
346.200            96.71           38.10
346.400            99.37           40.05
346.600           101.73           41.05
