# This LAS file was exported from StripLog 8.6.1, a product of WellSight Systems Inc..
# It is designed to pass the LAS Certify utility provided by the Canadian Well Logging Society.
# WellSight Systems does not warrant that this file will be readable by any other program, system, or process.
# If you encounter problems using this file, first contact the user who exported it, 
# and reference the appropriate LAS specification available at www.CWLS.org.
~VERSION INFORMATION
VERS      .           2.0                            : CWLS Log ASCII Standard Version
WRAP      .           NO                             : One Line per Depth Step
DLM       .           SPACE                          : Delimiter between data columns - one or more spaces
~WELL INFORMATION
STRT      .m          190                            : First Depth
STOP      .m          992                            : Last Depth
STEP      .m          0.2                            : Depth Increment
NULL      .           -999.25                        : NULL Value
COMP      .           Cardinal Energy Ltd.           : Well Operator
WELL      .           CARDINAL 102 HZ ALDSON 9-10-18-11 : Well Name
FLD       .                                          : Field
LOC       .           7-9-18-11W4                    : Location
SRVC      .           RPS Group                      : Service Company
DATE      .           2022-11-16 18:45 hrs           : Completion Date
CTRY      .                                          : Country
PROV      .                                          : Province       (required if CTRY = CA)
UWI       .           102/09-10-018-11W4/00          : Unique Well ID (required if CTRY = CA)
LIC       .           0505967                        : License        (required if CTRY = CA)
STAT      .                                          : State          (required if CTRY = US)
CNTY      .                                          : County         (required if CTRY = US)
API       .                                          : API Number     (required if CTRY = US)
# Surface Coords: 433.1 m North : 702.3 m West Boundary Section 18
LATI      .DEG                                       : Latitude  - see Surface Coords comment above
LONG      .DEG                                       : Longitude - see Surface Coords comment above
GDAT      .                                          : Geodetic Datum
EKB       .m          772.6                          : K.B. Elevation
EGL       .m          763.3                          : Ground Level Elevation
~PARAMETER
# There are no parameters
~CURVE
Depth     .m          960                            : Depth channel
Gamma     .API                                       : 
Total_Gas .units                                     : 
#Depth             Gamma       Total Gas
~ASCII
# ...
817.200            96.32          188.28
817.400            95.34          196.12
817.600            94.51          201.11
817.800           102.82          202.00
818.000           113.68          201.17
818.200           123.54          199.36
818.400           121.55          201.79
818.600           118.05          205.60
818.800           109.83          209.47
819.000           107.38          213.10
819.200            95.60          217.93
819.400            83.15          227.70
819.600            79.12          229.95
819.800            89.03          231.08
820.000            95.51          234.86
820.200           106.81          252.58
820.400           117.41          275.86
820.600           117.13          295.28
820.800           115.77          307.23
821.000           112.62          320.83
821.200           112.33          329.00
821.400           107.32          327.57
821.600            97.52          323.80
821.800            91.75          320.35
822.000            85.34          319.03
822.200            83.40          316.89
822.400            81.83          314.72
822.600            82.70          312.55
822.800            84.69          310.69
823.000            85.72          309.61
823.200            87.10          309.00
823.400            88.43          307.32
823.600            89.08          304.71
823.800            89.67          301.08
824.000            88.78          298.37
824.200            87.58          298.00
824.400            85.13          298.00
824.600            84.88          296.86
824.800            84.42          294.69
825.000            84.70          292.05
825.200            85.27          287.39
825.400            90.67          282.78
825.600            87.80          244.19
825.800            86.54          191.40
826.000            87.09          192.16
826.200            85.27          208.35
826.400            81.30          214.69
826.600            90.98          220.07
826.800            98.82          222.60
827.000            99.75          226.79
827.200            95.86          229.38
827.400           102.70          230.98
827.600           106.88          233.21
827.800           106.23          236.15
828.000            99.75          237.00
828.200           101.32          241.71
828.400           101.93          247.17
828.600            98.50          250.00
828.800            95.56          250.28
829.000            94.32          250.60
829.200            91.17          251.53
829.400            88.69          257.35
829.600            84.69          260.00
829.800            89.46          260.85
830.000            96.51          269.65
830.200            97.46          271.15
830.400            93.08          274.69
830.600            94.15          282.60
830.800            95.51          284.00
831.000           100.38          282.94
831.200           102.34          279.44
831.400           105.09          274.98
831.600           105.25          270.53
831.800           103.54          268.04
832.000           104.49          263.34
832.200           106.95          255.76
832.400           108.82          251.32
832.600           107.68          254.17
832.800           106.51          260.83
833.000           106.04          275.22
833.200           104.46          291.83
833.400           102.46          302.98
833.600           101.40          312.00
833.800           102.64          312.18
834.000           103.27          289.32
834.200           103.69          286.32
834.400           105.51          283.64
834.600           106.23          280.87
834.800           106.92          277.28
835.000           105.69          273.62
835.200           105.38          270.28
835.400           104.99          267.96
835.600           104.78          265.74
835.800           103.85          263.51
836.000           101.49          260.92
836.200           100.14          257.59
836.400            97.08          254.25
836.600            96.98          250.21
836.800            96.32          246.57
837.000            96.99          242.30
837.200            98.70          238.89
837.400           100.72          235.55
837.600           101.66          226.66
837.800           101.66          210.51
838.000           100.13          217.61
838.200           100.39          222.65
838.400           106.23          223.00
838.600           106.23          230.47
838.800           104.96          238.29
839.000           104.11          242.00
839.200           103.39          242.71
839.400           105.85          245.98
839.600           108.52          249.90
839.800           108.13          251.78
840.000           106.76          253.83
840.200           105.96          258.28
840.400           106.54          263.39
840.600           103.33          265.67
840.800           100.89          268.91
841.000            99.63          271.00
841.200           103.72          270.24
841.400           105.24          268.20
841.600           105.25          259.73
841.800           106.65          252.64
842.000           106.23          251.32
842.200           106.76          253.84
842.400           109.18          260.20
842.600           107.93          269.66
842.800           108.08          288.72
843.000           104.61          308.26
843.200           102.13          331.44
843.400           102.65          387.20
843.600           105.47          390.44
843.800           108.60          391.00
844.000           107.94          390.28
844.200           105.93          388.28
844.400           107.15          386.00
844.600           109.72          385.71
844.800           110.92          383.43
845.000           112.03          381.15
845.200           112.88          377.18
845.400           113.47          372.89
845.600           114.56          371.16
845.800           114.34          370.02
846.000           115.49          368.87
846.200           116.72          367.20
846.400           118.85          362.97
846.600           119.57          357.27
846.800           120.57          352.25
847.000           119.58          347.69
847.200           116.14          345.07
847.400           115.41          341.57
847.600           112.59          337.01
847.800           110.04          332.45
848.000           105.83          327.89
848.200           102.59          321.99
848.400           102.26          315.96
848.600           102.95          311.20
848.800           102.60          306.46
849.000           103.28          300.31
849.200           104.13          296.89
849.400            98.83          242.92
849.600            96.43          198.21
849.800            97.43          206.68
850.000           100.39          211.94
850.200           106.64          217.25
850.400           109.49          227.29
850.600           110.81          238.51
850.800           113.01          245.69
851.000           111.57          252.92
851.200           110.81          258.05
851.400           117.99          261.57
851.600           119.95          266.54
851.800           115.38          271.54
852.000           113.16          272.71
852.200           114.70          277.40
852.400           114.36          281.95
852.600           116.28          280.55
852.800           116.58          280.19
853.000           117.58          283.14
853.200           118.43          286.97
853.400           116.32          290.74
853.600           118.62          294.52
853.800           113.66          301.55
854.000           112.72          309.45
854.200           108.06          317.02
854.400           105.36          319.00
854.600           105.41          321.84
854.800           110.30          323.88
855.000           113.20          322.12
855.200           114.24          319.54
855.400           116.35          317.73
855.600           110.85          317.81
855.800           107.43          320.95
856.000           109.28          323.15
856.200           110.72          325.63
