# This LAS file was exported from StripLog 8.6.1, a product of WellSight Systems Inc..
# It is designed to pass the LAS Certify utility provided by the Canadian Well Logging Society.
# WellSight Systems does not warrant that this file will be readable by any other program, system, or process.
# If you encounter problems using this file, first contact the user who exported it, 
# and reference the appropriate LAS specification available at www.CWLS.org.
~VERSION INFORMATION
VERS      .           2.0                            : CWLS Log ASCII Standard Version
WRAP      .           NO                             : One Line per Depth Step
DLM       .           SPACE                          : Delimiter between data columns - one or more spaces
~WELL INFORMATION
STRT      .m          190                            : First Depth
STOP      .m          992                            : Last Depth
STEP      .m          0.2                            : Depth Increment
NULL      .           -999.25                        : NULL Value
COMP      .           Cardinal Energy Ltd.           : Well Operator
WELL      .           CARDINAL 102 HZ ALDSON 9-10-18-11 : Well Name
FLD       .                                          : Field
LOC       .           7-9-18-11W4                    : Location
SRVC      .           RPS Group                      : Service Company
DATE      .           2022-11-16 18:45 hrs           : Completion Date
CTRY      .                                          : Country
PROV      .                                          : Province       (required if CTRY = CA)
UWI       .           102/09-10-018-11W4/00          : Unique Well ID (required if CTRY = CA)
LIC       .           0505967                        : License        (required if CTRY = CA)
STAT      .                                          : State          (required if CTRY = US)
CNTY      .                                          : County         (required if CTRY = US)
API       .                                          : API Number     (required if CTRY = US)
# Surface Coords: 433.1 m North : 702.3 m West Boundary Section 18
LATI      .DEG                                       : Latitude  - see Surface Coords comment above
LONG      .DEG                                       : Longitude - see Surface Coords comment above
GDAT      .                                          : Geodetic Datum
EKB       .m          772.6                          : K.B. Elevation
EGL       .m          763.3                          : Ground Level Elevation
~PARAMETER
# There are no parameters
~CURVE
Depth     .m          960                            : Depth channel
Gamma     .API                                       : 
Total_Gas .units                                     : 
#Depth             Gamma       Total Gas
~ASCII
# ...
582.000           121.38          735.90
582.200           122.96          725.40
582.400           127.89          718.80
582.600           132.32          706.70
582.800           134.24          694.00
583.000           133.96          683.30
583.200           137.61          666.30
583.400           137.96          650.00
583.600           137.67          639.90
583.800           138.68          629.10
584.000           138.34          620.20
584.200           135.05          612.20
584.400           133.68          604.40
584.600           132.84          598.30
584.800           131.67          591.20
585.000           134.00          583.30
585.200           136.39          576.60
585.400           136.73          572.30
585.600           136.73          565.00
585.800           139.02          529.50
586.000           141.31          292.40
586.200           140.60          306.20
586.400           139.78          317.80
586.600           140.24          326.10
586.800           138.86          336.70
587.000           137.12          343.50
587.200           132.68          349.00
587.400           128.85          358.80
587.600           124.25          366.60
587.800           121.48          372.40
588.000           120.37          376.30
588.200           118.08          379.60
588.400           119.58          385.60
588.600           121.48          391.60
588.800           121.48          397.80
589.000           118.84          406.00
589.200           118.02          415.20
589.400           118.15          417.60
589.600           119.62          424.20
589.800           119.37          436.00
590.000           127.80          445.80
590.200           131.78          453.80
590.400           137.70          461.50
590.600           140.25          466.60
590.800           141.31          472.40
591.000           139.64          476.20
591.200           139.24          478.20
591.400           143.60          480.00
591.600           143.98          479.80
591.800           145.56          477.50
592.000           145.23          472.40
592.200           142.64          466.40
592.400           140.26          460.70
592.600           137.88          457.80
592.800           136.58          456.30
593.000           137.30          459.30
593.200           136.78          462.30
593.400           135.20          465.20
593.600           133.37          467.30
593.800           133.01          470.40
594.000           131.01          474.70
594.200           129.82          481.50
594.400           131.72          486.20
594.600           132.28          487.90
594.800           132.70          486.50
595.000           132.92          481.00
595.200           132.15          471.10
595.400           129.18          461.90
595.600           126.46          450.70
595.800           124.34          437.80
596.000           120.67          425.30
596.200           119.96          408.60
596.400           121.53          394.90
596.600           121.10          383.70
596.800           119.45          371.70
597.000           120.21          369.60
597.200           122.44          375.30
597.400           124.38          378.40
597.600           128.15          382.10
597.800           130.99          382.90
598.000           132.24          381.70
598.200           131.18          378.70
598.400           131.01          375.20
598.600           126.91          367.70
598.800           124.78          364.60
599.000           125.11          360.80
599.200           129.74          383.10
599.400           135.49          601.40
599.600           139.38          615.30
599.800           142.45          627.90
600.000           144.18          638.10
600.200           143.26          658.90
600.400           139.69          678.00
600.600           134.89          698.00
600.800           134.44          717.80
601.000           134.20          735.40
601.200           133.85          748.80
601.400           134.62          756.20
601.600           133.49          758.10
601.800           131.20          759.10
602.000           129.87          760.10
602.200           136.23          761.30
602.400           140.93          764.30
602.600           145.46          767.00
602.800           150.06          767.00
603.000           151.88          766.60
603.200           151.02          762.80
603.400           148.74          760.50
603.600           147.98          755.90
603.800           146.19          754.50
604.000           144.46          749.80
604.200           141.30          747.80
604.400           137.37          745.70
604.600           134.43          742.30
604.800           129.98          735.10
605.000           124.31          726.30
605.200           118.28          719.60
605.400           114.62          715.60
605.600           115.19          711.80
605.800           116.91          709.80
606.000           122.13          707.80
606.200           126.44          706.20
606.400           130.44          708.30
606.600           131.10          711.20
606.800           130.58          713.40
607.000           129.25          717.20
607.200           127.59          719.00
607.400           127.68          718.80
607.600           128.60          716.60
607.800           128.92          713.00
608.000           130.25          712.90
608.200           130.97          711.60
608.400           129.04          707.40
608.600           127.61          700.90
608.800           126.82          688.70
609.000           124.69          666.20
609.200           123.08          648.20
609.400           122.98          630.90
609.600           124.40          619.60
609.800           124.06          605.30
610.000           124.01          588.30
610.200           124.51          570.70
610.400           126.53          548.20
610.600           128.60          530.50
610.800           129.49          515.20
611.000           133.22          496.80
611.200           137.38          475.80
611.400           137.82          463.10
611.600           137.72          444.30
611.800           138.06          426.70
612.000           136.62          403.70
612.200           137.37          381.90
612.400           133.87          371.60
612.600           134.29          396.20
612.800           132.16          652.50
613.000           128.46          678.70
613.200           130.95          714.80
613.400           134.23          742.30
613.600           138.06          765.60
613.800           134.64          791.50
614.000           132.47          817.10
614.200           130.06          847.30
614.400           129.53          870.60
614.600           129.49          897.10
614.800           134.53          928.40
615.000           135.38          961.30
615.200           136.27          983.50
615.400           137.58          998.80
615.600           138.53         1016.40
615.800           138.98         1029.50
616.000           139.78         1034.40
616.200           139.59         1039.20
616.400           139.40         1051.40
616.600           141.50         1064.90
616.800           141.19         1073.70
617.000           140.35         1080.50
617.200           138.83         1085.40
617.400           137.71         1089.50
617.600           139.40         1094.70
617.800           140.70         1101.70
618.000           140.22         1108.60
618.200           138.37         1114.30
618.400           136.22         1117.70
618.600           134.40         1124.60
618.800           135.62         1130.40
619.000           135.07         1134.20
619.200           133.81         1136.10
619.400           131.72         1137.00
619.600           130.12         1137.10
619.800           129.49         1138.40
620.000           132.82         1143.30
620.200           132.35         1155.60
620.400           132.96         1161.10
620.600           134.37         1161.50
620.800           135.32         1155.70
621.000           135.05         1142.70
