# This LAS file was exported from StripLog 8.6.1, a product of WellSight Systems Inc..
# It is designed to pass the LAS Certify utility provided by the Canadian Well Logging Society.
# WellSight Systems does not warrant that this file will be readable by any other program, system, or process.
# If you encounter problems using this file, first contact the user who exported it, 
# and reference the appropriate LAS specification available at www.CWLS.org.
~VERSION INFORMATION
VERS      .           2.0                            : CWLS Log ASCII Standard Version
WRAP      .           NO                             : One Line per Depth Step
DLM       .           SPACE                          : Delimiter between data columns - one or more spaces
~WELL INFORMATION
STRT      .m          190                            : First Depth
STOP      .m          992                            : Last Depth
STEP      .m          0.2                            : Depth Increment
NULL      .           -999.25                        : NULL Value
COMP      .           Cardinal Energy Ltd.           : Well Operator
WELL      .           CARDINAL 102 HZ ALDSON 9-10-18-11 : Well Name
FLD       .                                          : Field
LOC       .           7-9-18-11W4                    : Location
SRVC      .           RPS Group                      : Service Company
DATE      .           2022-11-16 18:45 hrs           : Completion Date
CTRY      .                                          : Country
PROV      .                                          : Province       (required if CTRY = CA)
UWI       .           102/09-10-018-11W4/00          : Unique Well ID (required if CTRY = CA)
LIC       .           0505967                        : License        (required if CTRY = CA)
STAT      .                                          : State          (required if CTRY = US)
CNTY      .                                          : County         (required if CTRY = US)
API       .                                          : API Number     (required if CTRY = US)
# Surface Coords: 433.1 m North : 702.3 m West Boundary Section 18
LATI      .DEG                                       : Latitude  - see Surface Coords comment above
LONG      .DEG                                       : Longitude - see Surface Coords comment above
GDAT      .                                          : Geodetic Datum
EKB       .m          772.6                          : K.B. Elevation
EGL       .m          763.3                          : Ground Level Elevation
~PARAMETER
# There are no parameters
~CURVE
Depth     .m          960                            : Depth channel
Gamma     .API                                       : 
Total_Gas .units                                     : 
#Depth             Gamma       Total Gas
~ASCII
# ...
386.000            95.56           40.05
386.200            96.39           41.00
386.400            97.27           41.10
386.600           100.89           43.05
386.800           102.72           44.05
387.000           104.06           45.10
387.200           105.17           47.05
387.400           105.85           48.05
387.600           106.23           49.05
387.800           106.45           50.10
388.000           106.75           52.05
388.200           107.06           53.20
388.400           107.36           57.10
388.600           107.61           59.15
388.800           109.86           62.15
389.000           110.43           65.35
389.200           109.77           72.10
389.400           109.16           74.20
389.600           108.55           78.15
389.800           108.00           81.20
390.000           108.01           85.30
390.200           108.49           91.20
390.400           109.40           95.20
390.600           109.66           99.20
390.800           108.80          103.40
391.000           108.18          111.20
391.200           107.65          115.15
391.400           107.25          118.15
391.600           106.82          121.15
391.800           106.34          124.05
392.000           105.96          125.00
392.200           105.66          125.00
392.400           105.47          125.00
392.600           105.94          124.85
392.800           106.76          121.85
393.000           107.53          118.85
393.200           108.29          115.80
393.400           108.95          111.85
393.600           109.51          108.80
393.800           109.94          104.85
394.000           110.86          101.90
394.200           111.76           99.85
394.400           112.91           96.85
394.600           113.62           93.90
394.800           114.24           91.90
395.000           118.69           89.95
395.200           121.32           88.90
395.400           122.80           87.00
395.600           123.01           86.95
395.800           123.01           86.00
396.000           122.68           85.95
396.200           122.86           85.00
396.400           123.96           84.95
396.600           122.83           84.10
396.800           122.24           86.05
397.000           122.07           87.05
397.200           121.55           88.05
397.400           121.48           89.15
397.600           118.94           92.10
397.800           116.34           94.05
398.000           115.38           95.50
398.200           111.92          101.90
398.400           109.28           42.35
398.600           108.13           29.75
398.800           108.37           24.65
399.000           109.47           17.80
399.200           111.51           13.95
399.400           113.29           13.30
399.600           115.19           19.10
399.800           116.92           21.00
400.000           119.40           21.05
400.200           121.68           22.00
400.400           122.81           22.00
400.600           122.58           22.00
400.800           122.37           22.05
401.000           123.77           23.00
401.200           124.99           23.05
401.400           125.96           24.00
401.600           125.61           24.00
401.800           125.09           24.05
402.000           124.63           24.95
402.200           126.17           24.00
402.400           127.97           24.05
402.600           129.11           25.05
402.800           129.11           26.05
403.000           129.11           27.10
403.200           129.11           29.05
403.400           129.11           30.05
403.600           127.32           31.00
403.800           126.15           31.05
404.000           126.38           32.05
404.200           126.57           33.05
404.400           126.72           34.10
404.600           126.82           36.15
404.800           126.82           39.05
405.000           126.82           40.25
405.200           127.22           45.15
405.400           128.04           48.15
405.600           129.45           51.20
405.800           130.12           55.30
406.000           130.58           61.15
406.200           131.20           64.25
406.400           131.93           69.25
406.600           132.69           74.35
406.800           133.45           81.25
407.000           134.06           86.25
407.200           138.73           91.30
407.400           142.61           97.30
407.600           145.19          103.20
407.800           147.48          107.25
408.000           149.77          112.20
408.200           151.91          116.25
408.400           152.99          121.55
408.600           153.31          132.45
408.800           152.61          141.45
409.000           152.55          150.50
409.200           153.89          160.35
409.400           154.62          167.35
409.600           155.13          174.20
409.800           155.60          178.30
410.000           156.30          184.25
410.200           157.09          189.25
410.400           157.98          194.10
410.600           144.87          196.00
410.800           140.05          210.30
411.000           139.98          483.70
411.200           139.40          517.30
411.400           137.49          543.05
411.600           140.39          564.00
411.800           139.78          583.65
412.000           139.35          596.60
412.200           141.42          608.45
412.400           142.50          617.80
412.600           143.90          633.85
412.800           145.42          650.70
413.000           145.42          664.70
413.200           144.13          678.95
413.400           142.53          697.70
413.600           141.00          711.95
413.800           139.29          730.65
414.000           133.08          743.60
414.200           128.57          756.00
414.400           127.96          775.65
414.600           129.68          788.65
414.800           131.23          802.10
415.000           131.88          823.65
415.200           135.21          836.70
415.400           139.94          850.60
415.600           143.59          862.60
415.800           149.10          874.75
416.000           152.17          889.50
416.200           154.52          899.55
416.400           155.13          910.50
416.600           155.60          920.70
416.800           154.38          934.50
417.000           152.17          944.55
417.200           150.60          955.55
417.400           146.90          966.60
417.600           143.15          978.35
417.800           140.55          985.25
418.000           138.37          990.20
418.200           137.84          994.15
418.400           137.28          997.00
418.600           136.71          996.95
418.800           136.16          995.95
419.000           137.03          994.80
419.200           139.76          990.80
419.400           143.87          986.70
419.600           146.71          980.65
419.800           148.63          973.55
420.000           149.31          964.40
420.200           153.01          952.50
420.400           154.61          942.40
420.600           155.38          930.35
420.800           156.50          917.35
421.000           153.33          904.15
421.200           152.36          887.30
421.400           152.95          873.35
421.600           153.53          860.35
421.800           154.06          846.85
422.000           152.91          824.25
422.200           151.68          809.25
422.400           152.94          794.25
422.600           153.87          778.85
422.800           153.62          756.15
423.000           152.01          739.10
423.200           148.78          721.15
423.400           145.81          703.80
423.600           143.52          680.05
423.800           141.69          660.45
424.000           134.53          634.85
424.200           131.59          691.40
424.400           133.66          375.25
424.600           135.85          360.80
424.800           136.66          356.90
425.000           137.88          355.05
