# This LAS file was exported from StripLog 8.6.1, a product of WellSight Systems Inc..
# It is designed to pass the LAS Certify utility provided by the Canadian Well Logging Society.
# WellSight Systems does not warrant that this file will be readable by any other program, system, or process.
# If you encounter problems using this file, first contact the user who exported it, 
# and reference the appropriate LAS specification available at www.CWLS.org.
~VERSION INFORMATION
VERS      .           2.0                            : CWLS Log ASCII Standard Version
WRAP      .           NO                             : One Line per Depth Step
DLM       .           SPACE                          : Delimiter between data columns - one or more spaces
~WELL INFORMATION
STRT      .m          190                            : First Depth
STOP      .m          992                            : Last Depth
STEP      .m          0.2                            : Depth Increment
NULL      .           -999.25                        : NULL Value
COMP      .           Cardinal Energy Ltd.           : Well Operator
WELL      .           CARDINAL 102 HZ ALDSON 9-10-18-11 : Well Name
FLD       .                                          : Field
LOC       .           7-9-18-11W4                    : Location
SRVC      .           RPS Group                      : Service Company
DATE      .           2022-11-16 18:45 hrs           : Completion Date
CTRY      .                                          : Country
PROV      .                                          : Province       (required if CTRY = CA)
UWI       .           102/09-10-018-11W4/00          : Unique Well ID (required if CTRY = CA)
LIC       .           0505967                        : License        (required if CTRY = CA)
STAT      .                                          : State          (required if CTRY = US)
CNTY      .                                          : County         (required if CTRY = US)
API       .                                          : API Number     (required if CTRY = US)
# Surface Coords: 433.1 m North : 702.3 m West Boundary Section 18
LATI      .DEG                                       : Latitude  - see Surface Coords comment above
LONG      .DEG                                       : Longitude - see Surface Coords comment above
GDAT      .                                          : Geodetic Datum
EKB       .m          772.6                          : K.B. Elevation
EGL       .m          763.3                          : Ground Level Elevation
~PARAMETER
# There are no parameters
~CURVE
Depth     .m          960                            : Depth channel
Gamma     .API                                       : 
Total_Gas .units                                     : 
#Depth             Gamma       Total Gas
~ASCII
# ...
934.800            63.16          570.32
935.000            70.02          584.72
935.200            92.12          612.00
935.400           117.48          588.80
935.600           122.62          305.49
935.800           112.77          311.08
936.000           112.33          366.35
936.200           112.33          515.85
936.400           107.38          753.89
936.600           111.19          964.21
936.800           117.10         1139.33
937.000           116.53         1203.88
937.200           115.00         1204.00
937.400            84.50         1159.96
937.600            65.44         1097.05
937.800            73.06         1032.71
938.000           111.57          958.11
938.200           125.83          887.18
938.400           123.26          634.10
938.600            99.44          564.08
938.800           101.28          536.81
939.000           102.80          513.83
939.200           101.28          489.35
939.400           106.23          473.56
939.600           107.00          451.59
939.800           109.85          432.15
940.000           108.90          416.64
940.200           107.75          408.89
940.400           105.28          393.61
940.600           104.32          377.77
940.800           103.37          365.33
941.000           102.50          354.76
941.200           101.74          346.06
941.400           100.38          336.39
941.600           102.23          330.42
941.800            99.75          325.20
942.000           100.89          322.27
942.200           102.22          319.33
942.400           107.25          333.67
942.600           108.90          352.35
942.800           107.38          353.24
943.000           104.70          346.47
943.200           102.80          348.85
943.400           105.85          360.00
943.600            99.75          358.56
943.800            98.99          365.00
944.000           112.71          364.00
944.200           117.28          366.65
944.400           110.42          364.29
944.600           108.13          372.56
944.800           109.09          386.35
945.000           107.38          411.52
945.200           102.42          419.00
945.400           106.23          463.29
945.600           106.87          535.00
945.800           105.38          575.24
946.000           102.42          607.14
946.200           105.66          734.24
946.400           120.79         1002.26
946.600           124.79         1036.95
946.800           133.30         1073.24
947.000           131.77         1109.28
947.200           131.77         1145.22
947.400           131.96         1176.22
947.600           127.97         1197.38
947.800           123.26          958.63
948.000           117.83          881.35
948.200           115.97          840.71
948.400           111.06          817.59
948.600           108.52          821.31
948.800           111.95         1247.84
949.000           115.57         2614.10
949.200           108.90         2932.18
949.400            98.23         3108.83
949.600            84.50         3268.21
949.800            56.29         3384.61
950.000            48.16         3499.08
950.200            54.77         3591.16
950.400            60.10         3624.94
950.600            58.20         3590.40
950.800            50.95         3482.00
951.000            60.48         3257.42
951.200            63.53         2802.30
951.400            41.80         2591.44
951.600            36.47         1227.14
951.800            37.42         1273.40
952.000            52.61         1287.38
952.200            82.59         1286.94
952.400            94.79         1274.85
952.600           122.25         1255.85
952.800           134.06         1228.47
953.000           138.51         1199.11
953.200           138.25         1155.77
953.400           131.77         1108.79
953.600           127.20         1057.45
953.800           132.15         1017.19
954.000           128.53          982.65
954.200           120.34          948.04
954.400           113.86          922.30
954.600           119.63          908.23
954.800           123.52          906.83
955.000           124.53          573.56
955.200           130.36          546.00
955.400           132.41          523.92
955.600           132.15          502.89
955.800           121.61          240.70
956.000           118.72          224.45
956.200           120.34          209.75
956.400           122.62          210.53
956.600           115.38          226.37
956.800            93.65          252.64
957.000            82.22          276.74
957.200            69.44          293.60
957.400            64.30          322.85
957.600            73.06          336.92
957.800            88.31          349.51
958.000           100.13          359.15
958.200           108.37          369.33
958.400           109.90          376.78
958.600           111.12          392.59
958.800           112.64          402.52
959.000           113.47          411.16
959.200           113.67          421.57
959.400           114.87          438.82
959.600           118.05          451.80
959.800           118.81          459.75
960.000           116.72          457.80
960.200           113.28          456.48
960.400           109.28          457.00
960.600           107.76          456.11
960.800           104.71          510.97
961.000           111.95          511.76
961.200           111.19          504.41
961.400           109.28          494.78
961.600           113.35          493.48
961.800            94.80          492.18
962.000           110.81          489.11
962.200           118.94          496.24
962.400            91.75          508.71
962.600            93.66          562.38
962.800            99.37          640.77
963.000           115.76          748.43
963.200           125.68          843.66
963.400           124.02          933.48
963.600           130.63          998.19
963.800           141.81         1029.27
964.000           127.20         1035.89
964.200           114.62         1031.57
964.400           114.11         1013.95
964.600           112.33          987.97
964.800           120.72          963.97
965.000           126.82          945.18
965.200           119.38          922.09
965.400           103.56          899.20
965.600            88.69          877.50
965.800            86.92          860.61
966.000            91.36          838.02
966.200            98.35          810.25
966.400           100.52          770.47
966.600            94.80          225.46
966.800            85.27          230.63
967.000            88.95          236.51
967.200            91.74          244.05
967.400            96.32          248.46
967.600           102.41          258.76
967.800           110.81          274.06
968.000           119.58          284.59
968.200           118.05          301.54
968.400           113.09          312.43
968.600           104.96          327.60
968.800           103.19          339.98
969.000            98.61          359.16
969.200            98.98          379.59
969.400           100.64          404.98
969.600            97.84          417.07
969.800           102.93          448.08
970.000           109.66          511.84
970.200           109.28          571.00
970.400           120.97          580.42
970.600           118.05          568.07
970.800           110.43          556.49
971.000            98.39          561.93
971.200            98.61          564.00
971.400            99.71          557.24
971.600            96.49          544.38
971.800            95.37          527.02
972.000            98.99          675.32
972.200           116.14         1245.46
972.400           106.86         1474.41
972.600            88.31         1582.08
972.800            95.56         1589.27
973.000           102.42         1525.06
973.200           103.43         1454.41
973.400            92.38         1390.08
973.600            82.98         1322.81
973.800            88.19         1279.64
